시설번호	시설유형코드	시도명	시군구명	시군구코드	소재지도로명주소	소재지지번주소	위도	경도	상세위치	안전센터명	보호틀유무	설치연도	출수압력	관할기관명	관할기관전화번호	데이터기준일자
은평-녹번-104049	2	서울특별시	은평구	11380	서울특별시 은평구 응암로14길 23-11 주택가	서울특별시 은평구 응암동 337-66 주택가	37.590076	126.920095		녹번119안전센터	N	2019	5	은평소방서	02-6981-6044	2025-04-08
은평-녹번-104050	2	서울특별시	은평구	11380	서울특별시 은평구 가좌로10길 22	서울특별시 은평구 응암동 578-64	37.59269984	126.9169161		녹번119안전센터	N	1998	5	은평소방서	02-6981-6044	2025-04-08
은평-녹번-104051	2	서울특별시	은평구	11380	서울특별시 은평구 응암로14길 15-39 민들레어린이집	서울특별시 은평구 응암동 351-4 민들레어린이집	37.590285	126.920082	민들레어린이집	녹번119안전센터	N	1998	5	은평소방서	02-6981-6044	2025-04-08
은평-녹번-104052	2	서울특별시	은평구	11380	서울특별시 은평구 응암로16길 8-24 거성리젠시	서울특별시 은평구 응암동 368-2 거성리젠시	37.590721	126.918429	거성리젠시	녹번119안전센터	N	1998	5	은평소방서	02-6981-6044	2025-04-08
은평-녹번-104053	2	서울특별시	은평구	11380	서울특별시 은평구 응암로25길 1 일반주택	서울특별시 은평구 응암동 124-2 일반주택	37.595012	126.917781		녹번119안전센터	N	1998	5	은평소방서	02-6981-6044	2025-04-08
은평-녹번-104054	2	서울특별시	은평구	11380	서울특별시 은평구 응암로20길 4-1 행복한집 앞	서울특별시 은평구 응암동 397-88 행복한집 앞	37.59278	126.918496	행복한집	녹번119안전센터	N	1998	5	은평소방서	02-6981-6044	2025-04-08
은평-녹번-104055	1	서울특별시	은평구	11380	서울특별시 은평구 응암로 247 외환은행	서울특별시 은평구 응암동 124-17 외환은행	37.593909	126.917867	외환은행	녹번119안전센터	N	2000	5	은평소방서	02-6981-6044	2025-04-08
은평-녹번-104056	1	서울특별시	은평구	11380	서울특별시 은평구 응암로 206 KTF	서울특별시 은평구 응암동 576-44 KTF	37.590548	126.917443	KTF	녹번119안전센터	N	2000	5	은평소방서	02-6981-6044	2025-04-08
은평-녹번-104057	2	서울특별시	은평구	11380	서울특별시 은평구 백련산로 9-11	서울특별시 은평구 응암동 675-16	37.58661521	126.922274		녹번119안전센터	N	2001	5	은평소방서	02-6981-6044	2025-04-08
은평-녹번-104058	2	서울특별시	은평구	11380	서울특별시 은평구 은평로18길 6-16	서울특별시 은평구 응암동 74-16	37.60088697	126.930774		녹번119안전센터	N	2001	5	은평소방서	02-6981-6044	2025-04-08
은평-녹번-104059	2	서울특별시	은평구	11380	서울특별시 은평구 응암로20길 30-10	서울특별시 은평구 응암동 403-2	37.59200951	126.9208747		녹번119안전센터	N	2001	5	은평소방서	02-6981-6044	2025-04-08
은평-녹번-104060	2	서울특별시	은평구	11380	서울특별시 은평구 불광천길 442	서울특별시 은평구 응암동 579-25	37.59373687	126.9152607		녹번119안전센터	N	2003	5	은평소방서	02-6981-6044	2025-04-08
은평-녹번-104061	1	서울특별시	은평구	11380	서울특별시 은평구 응암로 209	서울특별시 은평구 응암동 577-43	37.59076647	126.9170152		녹번119안전센터	N	2004	5	은평소방서	02-6981-6044	2025-04-08
은평-녹번-104062	2	서울특별시	은평구	11380	"서울특별시 은평구 응암로21가길 8 광장호프,소주"	"서울특별시 은평구 응암동 125-1 광장호프,소주"	37.594479	126.917078	"광장호프,소주"	녹번119안전센터	N	2004	5	은평소방서	02-6981-6044	2025-04-08
은평-녹번-104035	2	서울특별시	은평구	11380	서울특별시 은평구 불광천길 420	서울특별시 은평구 응암동 583-34	37.592644	126.914906		녹번119안전센터	N	1995	5	은평소방서	02-6981-6044	2025-04-08
은평-녹번-104036	1	서울특별시	은평구	11380	서울특별시 은평구 가좌로 248-1	서울특별시 은평구 응암동 584-47	37.59167198	126.9155207		녹번119안전센터	N	1995	5	은평소방서	02-6981-6044	2025-04-08
은평-녹번-104037	2	서울특별시	은평구	11380	서울특별시 은평구 은평로18길 9-1 골빈pc방	서울특별시 은평구 응암동 58-17 골빈pc방	37.600267	126.931208	골빈pc방	녹번119안전센터	N	1995	5	은평소방서	02-6981-6044	2025-04-08
은평-녹번-104038	2	서울특별시	은평구	11380	서울특별시 은평구 응암로14길 17	서울특별시 은평구 응암동 335-31	37.59004092	126.9192522		녹번119안전센터	N	1995	5	은평소방서	02-6981-6044	2025-04-08
은평-녹번-104039	2	서울특별시	은평구	11380	서울특별시 은평구 응암로21가길 9-9	서울특별시 은평구 응암동 126-4	37.594713	126.9165286		녹번119안전센터	N	1996	5	은평소방서	02-6981-6044	2025-04-08
은평-녹번-104040	2	서울특별시	은평구	11380	서울특별시 은평구 불광천길 470-2 다세대주택	서울특별시 은평구 응암동 126-20 다세대주택	37.594848	126.915573		녹번119안전센터	N	1996	5	은평소방서	02-6981-6044	2025-04-08
은평-녹번-104041	2	서울특별시	은평구	11380	서울특별시 은평구 가좌로10길 29 힐링북카페	서울특별시 은평구 응암동 579-7 힐링북카페	37.593366	126.916916	힐링북카페	녹번119안전센터	N	1996	5	은평소방서	02-6981-6044	2025-04-08
은평-녹번-104042	2	서울특별시	은평구	11380	서울특별시 은평구 가좌로10길 14 똘똘이마트	서울특별시 은평구 응암동 578-57 똘똘이마트	37.591923	126.916621	똘똘이마트	녹번119안전센터	N	1996	5	은평소방서	02-6981-6044	2025-04-08
은평-녹번-104043	1	서울특별시	은평구	11380	서울특별시 은평구 백련산로 67 백련산파크자이(대로변 인도앞)	서울특별시 은평구 응암동 626-53 백련산파크자이(대로변 인도앞)	37.592926	126.9228	백련산파크자이 대로변 인도 앞	녹번119안전센터	N	2019	5	은평소방서	02-6981-6044	2025-04-08
은평-녹번-104044	1	서울특별시	은평구	11380	서울특별시 은평구 가좌로 238	서울특별시 은평구 응암동 584-14	37.59106949	126.916201		녹번119안전센터	N	1997	5	은평소방서	02-6981-6044	2025-04-08
은평-녹번-104045	2	서울특별시	은평구	11380	서울특별시 은평구 가좌로7나길 4 토탈인테리어앞	서울특별시 은평구 응암동 732-21 토탈인테리어앞	37.585696	126.919086	토탈인테리어	녹번119안전센터	N	1997	5	은평소방서	02-6981-6044	2025-04-08
은평-녹번-104046	1	서울특별시	은평구	11380	서울특별시 은평구 가좌로 180 은평에스피학원	서울특별시 은평구 응암동 674-1 은평에스피학원	37.587176	126.920945	은평에스피학원	녹번119안전센터	N	1997	5	은평소방서	02-6981-6044	2025-04-08
은평-녹번-104047	2	서울특별시	은평구	11380	서울특별시 은평구 응암로34가길 20	서울특별시 은평구 응암동 102-1	37.59945	126.9232987		녹번119안전센터	N	1997	5	은평소방서	02-6981-6044	2025-04-08
은평-녹번-104048	2	서울특별시	은평구	11380	서울특별시 은평구 가좌로 202-41	서울특별시 은평구 응암동 338-84	37.58871548	126.9203361		녹번119안전센터	N	1997	5	은평소방서	02-6981-6044	2025-04-08
은평-현장-209048	2	서울특별시	은평구	11380	서울특별시 은평구 불광로18가길 10 일반가	서울특별시 은평구 불광동 182-1 일반가	37.622766	126.932548		현장대응단	N	1994	5	은평소방서	02-6981-6044	2025-04-08
은평-녹번-104019	2	서울특별시	은평구	11380	서울특별시 은평구 응암로14길 9 신한드림빌	서울특별시 은평구 응암동 354-15 신한드림빌	37.590195	126.91846	신한드림빌	녹번119안전센터	N	1993	5	은평소방서	02-6981-6044	2025-04-08
은평-녹번-104020	2	서울특별시	은평구	11380	서울특별시 은평구 가좌로 204 동양빌딩	서울특별시 은평구 응암동 338-78 동양빌딩	37.588714	126.919045	동양빌딩	녹번119안전센터	N	1993	5	은평소방서	02-6981-6044	2025-04-08
은평-녹번-104021	2	서울특별시	은평구	11380	서울특별시 은평구 가좌로6길 12 미복슈퍼	서울특별시 은평구 응암동 244-221 미복슈퍼	37.587515	126.921541	미복슈퍼	녹번119안전센터	N	1993	5	은평소방서	02-6981-6044	2025-04-08
은평-녹번-104022	2	서울특별시	은평구	11380	서울특별시 은평구 은평로16길 9-9	서울특별시 은평구 응암동 73-12	37.600312	126.930372		녹번119안전센터	N	1993	5	은평소방서	02-6981-6044	2025-04-08
은평-녹번-104023	2	서울특별시	은평구	11380	서울특별시 은평구 응암로20길 13 더클레스 앞	서울특별시 은평구 응암동 397-37 더클레스 앞	37.592707	126.919375	더클레스	녹번119안전센터	N	1993	5	은평소방서	02-6981-6044	2025-04-08
은평-녹번-104024	2	서울특별시	은평구	11380	서울특별시 은평구 응암로16길 7	서울특별시 은평구 응암동 365-43	37.59171999	126.918444		녹번119안전센터	N	1993	5	은평소방서	02-6981-6044	2025-04-08
은평-녹번-104025	2	서울특별시	은평구	11380	서울특별시 은평구 은평로11길 12	서울특별시 은평구 녹번동 156-42	37.6019257	126.923454		녹번119안전센터	N	1994	5	은평소방서	02-6981-6044	2025-04-08
은평-녹번-104027	1	서울특별시	은평구	11380	서울특별시 은평구 응암로 221 상일리베가구	서울특별시 은평구 응암동 577-1 상일리베가구	37.591635	126.917462	상일리베가구	녹번119안전센터	N	1994	5	은평소방서	02-6981-6044	2025-04-08
은평-녹번-104028	1	서울특별시	은평구	11380	서울특별시 은평구 응암로 220 헬스수영복	서울특별시 은평구 응암동 576-32 헬스수영복	37.591447	126.917638	헬스수영복	녹번119안전센터	N	1994	5	은평소방서	02-6981-6044	2025-04-08
은평-녹번-104029	1	서울특별시	은평구	11380	서울특별시 은평구 응암로 240 디지털프라자	서울특별시 은평구 응암동 576-10 디지털프라자	37.593123	126.918025	디지털프라자	녹번119안전센터	N	1994	5	은평소방서	02-6981-6044	2025-04-08
은평-녹번-104030	2	서울특별시	은평구	11380	서울특별시 은평구 응암로16길 17-1	서울특별시 은평구 응암동 362-8	37.59157063	126.919531		녹번119안전센터	N	1995	5	은평소방서	02-6981-6044	2025-04-08
은평-녹번-104031	2	서울특별시	은평구	11380	서울특별시 은평구 응암로22길 28-10 주택가	서울특별시 은평구 응암동 405-3 주택가	37.592967	126.921185		녹번119안전센터	N	2019	5	은평소방서	02-6981-6044	2025-04-08
은평-녹번-104032	1	서울특별시	은평구	11380	서울특별시 은평구 가좌로 192 호돌이체육관	서울특별시 은평구 응암동 287-22 호돌이체육관	37.587934	126.919996	호돌이체육관	녹번119안전센터	N	1995	5	은평소방서	02-6981-6044	2025-04-08
은평-녹번-104033	2	서울특별시	은평구	11380	서울특별시 은평구 불광천길 450	서울특별시 은평구 응암동 579-32	37.59409445	126.9153519		녹번119안전센터	N	1995	5	은평소방서	02-6981-6044	2025-04-08
은평-녹번-104034	2	서울특별시	은평구	11380	서울특별시 은평구 불광천길 442-15	서울특별시 은평구 응암동 581-15	37.593415	126.915911		녹번119안전센터	N	1995	5	은평소방서	02-6981-6044	2025-04-08
은평-녹번-104002	2	서울특별시	은평구	11380	서울특별시 은평구 응암로 255	서울특별시 은평구 응암동 124-1	37.594781	126.9178222		녹번119안전센터	N	1987	5	은평소방서	02-6981-6044	2025-04-08
은평-녹번-104003	2	서울특별시	은평구	11380	서울특별시 은평구 백련산로 39	서울특별시 은평구 응암동 620-3	37.589013	126.922579		녹번119안전센터	N	1988	5	은평소방서	02-6981-6044	2025-04-08
은평-녹번-104005	2	서울특별시	은평구	11380	서울특별시 은평구 응암로16가길 12-6 미모헤어숍	서울특별시 은평구 응암동 349-18 미모헤어숍	37.590308	126.920442	미모헤어숍	녹번119안전센터	N	2019	5	은평소방서	02-6981-6044	2025-04-08
은평-녹번-104006	1	서울특별시	은평구	11380	서울특별시 은평구 응암로 235 서울정형외과의원	서울특별시 은평구 응암동 578-16 서울정형외과의원	37.592743	126.917709	서울정형외과의원	녹번119안전센터	N	1988	5	은평소방서	02-6981-6044	2025-04-08
은평-녹번-104008	2	서울특별시	은평구	11380	서울특별시 은평구 가좌로 166 충암자동차공업사	서울특별시 은평구 응암동 675-19 충암자동차공업사	37.586225	126.922164	충암자동차공업사	녹번119안전센터	N	1988	5	은평소방서	02-6981-6044	2025-04-08
은평-녹번-104009	2	서울특별시	은평구	11380	서울특별시 은평구 불광천길 410-26	서울특별시 은평구 응암동 584-56	37.591949	126.9160757		녹번119안전센터	N	1988	5	은평소방서	02-6981-6044	2025-04-08
은평-녹번-104010	2	서울특별시	은평구	11380	서울특별시 은평구 응암로20길 29 미잉미용실 앞	서울특별시 은평구 응암동 240-35 미잉미용실 앞	37.592535	126.921225	미잉미용실	녹번119안전센터	N	2019	5	은평소방서	02-6981-6044	2025-04-08
은평-녹번-104011	2	서울특별시	은평구	11380	서울특별시 은평구 응암로34나길 13	서울특별시 은평구 응암동 102-18	37.59887781	126.923535		녹번119안전센터	N	1989	5	은평소방서	02-6981-6044	2025-04-08
은평-녹번-104012	2	서울특별시	은평구	11380	서울특별시 은평구 가좌로 222 응암애견백화점	서울특별시 은평구 응암동 576-53 응암애견백화점	37.589762	126.917628	응암애견백화점	녹번119안전센터	N	1990	5	은평소방서	02-6981-6044	2025-04-08
은평-녹번-104013	2	서울특별시	은평구	11380	서울특별시 은평구 응암로20길 19-1	서울특별시 은평구 응암동 402-54	37.59274871	126.9202411		녹번119안전센터	N	1991	5	은평소방서	02-6981-6044	2025-04-08
은평-녹번-104014	2	서울특별시	은평구	11380	서울특별시 은평구 가좌로10길 17-7	서울특별시 은평구 응암동 583-49	37.592428	126.9163366		녹번119안전센터	N	1991	5	은평소방서	02-6981-6044	2025-04-08
은평-녹번-104015	2	서울특별시	은평구	11380	서울특별시 은평구 불광천길 442-13	서울특별시 은평구 응암동 579-16	37.59369871	126.9158274		녹번119안전센터	N	1993	5	은평소방서	02-6981-6044	2025-04-08
은평-녹번-104016	2	서울특별시	은평구	11380	서울특별시 은평구 불광천길 410-9	서울특별시 은평구 응암동 583-28	37.59228834	126.915299		녹번119안전센터	N	1993	5	은평소방서	02-6981-6044	2025-04-08
은평-녹번-104017	2	서울특별시	은평구	11380	서울특별시 은평구 응암로18길 18-4 엘지빌라	서울특별시 은평구 응암동 397-275 엘지빌라	37.592163	126.91987	엘지빌라	녹번119안전센터	N	1993	5	은평소방서	02-6981-6044	2025-04-08
은평-녹번-104018	2	서울특별시	은평구	11380	서울특별시 은평구 응암로16길 20-28 주택가	서울특별시 은평구 응암동 351-7 주택가	37.590744	126.919229		녹번119안전센터	N	1993	5	은평소방서	02-6981-6044	2025-04-08
은평-녹번-103072	1	서울특별시	은평구	11380	서울특별시 은평구 백련산로 38	서울특별시 은평구 응암동 760	37.58927061	126.923058		녹번119안전센터	N	2001	5	은평소방서	02-6981-6044	2025-04-08
은평-녹번-103074	2	서울특별시	은평구	11380	서울특별시 은평구 서오릉로 30-12	서울특별시 은평구 녹번동 82-32	37.60353731	126.9261278		녹번119안전센터	N	2002	5	은평소방서	02-6981-6044	2025-04-08
은평-녹번-103075	2	서울특별시	은평구	11380	서울특별시 은평구 서오릉로 30-20	서울특별시 은평구 녹번동 82-4	37.603415	126.926578		녹번119안전센터	N	2002	5	은평소방서	02-6981-6044	2025-04-08
은평-녹번-103076	1	서울특별시	은평구	11380	서울특별시 은평구 응암로34길 23-1	서울특별시 은평구 응암동 196-9	37.597531	126.923527		녹번119안전센터	N	2003	5	은평소방서	02-6981-6044	2025-04-08
은평-녹번-103077	2	서울특별시	은평구	11380	서울특별시 은평구 응암로16가길 2	서울특별시 은평구 응암동 348-7	37.59121899	126.9207454		녹번119안전센터	N	2003	5	은평소방서	02-6981-6044	2025-04-08
은평-녹번-103078	2	서울특별시	은평구	11380	서울특별시 은평구 은평로16가길 19-1	서울특별시 은평구 응암동 39-22	37.598299	126.930985		녹번119안전센터	N	2003	5	은평소방서	02-6981-6044	2025-04-08
은평-녹번-103079	1	서울특별시	은평구	11380	서울특별시 은평구 녹번로 27	서울특별시 은평구 녹번동 100-36	37.60474279	126.9280951		녹번119안전센터	N	2004	5	은평소방서	02-6981-6044	2025-04-08
은평-녹번-103080	1	서울특별시	은평구	11380	서울특별시 은평구 백련산로 103	서울특별시 은평구 응암동 221-24	37.59481	126.922797		녹번119안전센터	N	2004	5	은평소방서	02-6981-6044	2025-04-08
은평-녹번-103081	1	서울특별시	은평구	11380	서울특별시 은평구 백련산로 128 신의쉐르빌	서울특별시 은평구 응암동 197-41 신의쉐르빌	37.596654	126.923969	신의쉐르빌	녹번119안전센터	N	2004	5	은평소방서	02-6981-6044	2025-04-08
은평-녹번-103082	1	서울특별시	은평구	11380	서울특별시 은평구 백련산로 87 가로수빌딩	서울특별시 은평구 응암동 236-28 가로수빌딩	37.59341	126.922992	가로수빌딩	녹번119안전센터	N	2004	5	은평소방서	02-6981-6044	2025-04-08
은평-녹번-103083	2	서울특별시	은평구	11380	서울특별시 은평구 응암로 190-11	서울특별시 은평구 응암동 601-8	37.58884772	126.9176669		녹번119안전센터	N	2006	5	은평소방서	02-6981-6044	2025-04-08
은평-녹번-103084	2	서울특별시	은평구	11380	서울특별시 은평구 응암로34길 21-19	서울특별시 은평구 응암동 101-41	37.59820165	126.9238613		녹번119안전센터	N	2006	5	은평소방서	02-6981-6044	2025-04-08
은평-녹번-103085	1	서울특별시	은평구	11380	서울특별시 은평구 백련산로4길 25	서울특별시 은평구 응암동 227-24	37.59477449	126.925743		녹번119안전센터	N	2011	5	은평소방서	02-6981-6044	2025-04-08
은평-녹번-103086	1	서울특별시	은평구	11380	서울특별시 은평구 응암로22길 3-1	서울특별시 은평구 응암동 427-130	37.5939075	126.9186943		녹번119안전센터	N	2022	5	은평소방서	02-6981-6044	2025-04-08
은평-녹번-104001	2	서울특별시	은평구	11380	서울특별시 은평구 응암로21길 12 보은사철탕	서울특별시 은평구 응암동 125-12 보은사철탕	37.594059	126.916371	보은사철탕	녹번119안전센터	N	1987	5	은평소방서	02-6981-6044	2025-04-08
은평-녹번-103057	1	서울특별시	은평구	11380	서울특별시 은평구 백련산로 36-	서울특별시 은평구 응암동 761	37.58845665	126.9247675		녹번119안전센터	N	1998	5	은평소방서	02-6981-6044	2025-04-08
은평-녹번-103058	1	서울특별시	은평구	11380	서울특별시 은평구 백련산로 36	서울특별시 은평구 응암동 761	37.588417	126.9247675		녹번119안전센터	N	2002	5	은평소방서	02-6981-6044	2025-04-08
은평-녹번-103059	1	서울특별시	은평구	11380	서울특별시 은평구 은평로 85	서울특별시 은평구 응암동 91-8	37.599667	126.9173612		녹번119안전센터	N	1997	5	은평소방서	02-6981-6044	2025-04-08
은평-녹번-103060	1	서울특별시	은평구	11380	서울특별시 은평구 백련산로 38	서울특별시 은평구 응암동 760	37.58927061	126.9230906		녹번119안전센터	N	2002	5	은평소방서	02-6981-6044	2025-04-08
은평-녹번-103061	1	서울특별시	은평구	11380	서울특별시 은평구 백련산로 38	서울특별시 은평구 응암동 760	37.58927061	126.9230906		녹번119안전센터	N	1997	5	은평소방서	02-6981-6044	2025-04-08
은평-녹번-103062	2	서울특별시	은평구	11380	서울특별시 은평구 백련산로7길 5-4	서울특별시 은평구 응암동 221-3	37.595839	126.922673		녹번119안전센터	N	1997	5	은평소방서	02-6981-6044	2025-04-08
은평-녹번-103063	2	서울특별시	은평구	11380	서울특별시 은평구 응암로30길 22	서울특별시 은평구 응암동 452-34	37.595641	126.921427		녹번119안전센터	N	1997	5	은평소방서	02-6981-6044	2025-04-08
은평-녹번-103064	1	서울특별시	은평구	11380	서울특별시 은평구 은평로 93	서울특별시 은평구 응암동 91-5	37.59978536	126.9181268		녹번119안전센터	N	1997	5	은평소방서	02-6981-6044	2025-04-08
은평-녹번-103065	1	서울특별시	은평구	11380	서울특별시 은평구 응암로 294	서울특별시 은평구 응암동 104-42	37.59767955	126.9206222		녹번119안전센터	N	1997	5	은평소방서	02-6981-6044	2025-04-08
은평-녹번-103066	1	서울특별시	은평구	11380	서울특별시 은평구 백련산로 38	서울특별시 은평구 응암동 760	37.58927061	126.9230906		녹번119안전센터	N	1997	5	은평소방서	02-6981-6044	2025-04-08
은평-녹번-103067	2	서울특별시	은평구	11380	서울특별시 은평구 백련산로 108	서울특별시 은평구 응암동 225-162	37.595112	126.923031		녹번119안전센터	N	2002	5	은평소방서	02-6981-6044	2025-04-08
은평-녹번-103068	1	서울특별시	은평구	11380	서울특별시 은평구 백련산로 38	서울특별시 은평구 응암동 760	37.58927061	126.9230906		녹번119안전센터	N	1998	5	은평소방서	02-6981-6044	2025-04-08
은평-녹번-103069	2	서울특별시	은평구	11380	서울특별시 은평구 백련산로4길 17-10	서울특별시 은평구 응암동 227-52	37.595348	126.9252243		녹번119안전센터	N	1998	5	은평소방서	02-6981-6044	2025-04-08
은평-녹번-103070	1	서울특별시	은평구	11380	서울특별시 은평구 백련산로 38	서울특별시 은평구 응암동 760	37.58927061	126.923024		녹번119안전센터	N	2001	5	은평소방서	02-6981-6044	2025-04-08
은평-녹번-103071	2	서울특별시	은평구	11380	서울특별시 은평구 백련산로4길 23-16	서울특별시 은평구 응암동 227-3	37.59553383	126.926015		녹번119안전센터	N	2001	5	은평소방서	02-6981-6044	2025-04-08
은평-녹번-103042	2	서울특별시	은평구	11380	서울특별시 은평구 백련산로 116	서울특별시 은평구 응암동 225-73	37.595638	126.923366		녹번119안전센터	N	1995	5	은평소방서	02-6981-6044	2025-04-08
은평-녹번-103043	2	서울특별시	은평구	11380	서울특별시 은평구 백련산로4길 11-14	서울특별시 은평구 응암동 227-88	37.59533561	126.924446		녹번119안전센터	N	1996	5	은평소방서	02-6981-6044	2025-04-08
은평-녹번-103044	1	서울특별시	은평구	11380	서울특별시 은평구 통일로 587 H에비뉴호텔 우측상가	서울특별시 은평구 응암동 30-1 H에비뉴호텔 우측상가	37.59916	126.936651	H에비뉴호텔	녹번119안전센터	N	1996	5	은평소방서	02-6981-6044	2025-04-08
은평-녹번-103045	2	서울특별시	은평구	11380	서울특별시 은평구 불광천길 442-30 거성리젠시	서울특별시 은평구 응암동 580-7 거성리젠시	37.592773	126.915359	거성리젠시	녹번119안전센터	N	1996	5	은평소방서	02-6981-6044	2025-04-08
은평-녹번-103046	2	서울특별시	은평구	11380	서울특별시 은평구 응암로 254 밝은문아트(주상복합)	서울특별시 은평구 응암동 427-113 밝은문아트(주상복합)	37.59461	126.918595	밝은문아트주상복합	녹번119안전센터	N	1996	5	은평소방서	02-6981-6044	2025-04-08
은평-녹번-103047	2	서울특별시	은평구	11380	서울특별시 은평구 응암로22길 19 오성부동산앞	서울특별시 은평구 응암동 419-111 오성부동산앞	37.593519	126.920257	오성부동산	녹번119안전센터	N	1996	5	은평소방서	02-6981-6044	2025-04-08
은평-녹번-103048	1	서울특별시	은평구	11380	서울특별시 은평구 응암로22길 27-1 귀금속프라자	서울특별시 은평구 응암동 239-15 귀금속프라자	37.593372	126.921266	귀금속프라자	녹번119안전센터	N	1996	5	은평소방서	02-6981-6044	2025-04-08
은평-녹번-103049	2	서울특별시	은평구	11380	서울특별시 은평구 응암로29길 14-7 동명홈타운 B동	서울특별시 은평구 응암동 118-29 동명홈타운 B동	37.596893	126.917779	동명홈타운 B동	녹번119안전센터	N	1996	5	은평소방서	02-6981-6044	2025-04-08
은평-녹번-103050	2	서울특별시	은평구	11380	서울특별시 은평구 응암로29길 18-4	서울특별시 은평구 응암동 118-36	37.59700462	126.9174727		녹번119안전센터	N	1996	5	은평소방서	02-6981-6044	2025-04-08
은평-녹번-103051	2	서울특별시	은평구	11380	서울특별시 은평구 불광천길 526	서울특별시 은평구 응암동 113-21	37.59732215	126.9162179		녹번119안전센터	N	2002	5	은평소방서	02-6981-6044	2025-04-08
은평-녹번-103052	2	서울특별시	은평구	11380	서울특별시 은평구 불광천길 528	서울특별시 은평구 응암동 113-23	37.59753147	126.9163691		녹번119안전센터	N	1996	5	은평소방서	02-6981-6044	2025-04-08
은평-녹번-103053	2	서울특별시	은평구	11380	서울특별시 은평구 응암로18길 6-1	서울특별시 은평구 응암동 397-264	37.59224155	126.9185328		녹번119안전센터	N	1996	5	은평소방서	02-6981-6044	2025-04-08
은평-녹번-103054	2	서울특별시	은평구	11380	서울특별시 은평구 은평로13길 7-10	서울특별시 은평구 응암동 85-10	37.60192313	126.9250358		녹번119안전센터	N	1997	5	은평소방서	02-6981-6044	2025-04-08
은평-녹번-103055	2	서울특별시	은평구	11380	서울특별시 은평구 백련산로4길 11-30	서울특별시 은평구 응암동 227-17	37.595965	126.924739		녹번119안전센터	N	2002	5	은평소방서	02-6981-6044	2025-04-08
은평-녹번-103056	2	서울특별시	은평구	11380	서울특별시 은평구 백련산로 10	서울특별시 은평구 응암동 761-2	37.58652022	126.9230603		녹번119안전센터	N	1997	5	은평소방서	02-6981-6044	2025-04-08
은평-녹번-103027	2	서울특별시	은평구	11380	서울특별시 은평구 응암로30길 15-7	서울특별시 은평구 응암동 452-10	37.59608	126.921203		녹번119안전센터	N	1993	5	은평소방서	02-6981-6044	2025-04-08
은평-녹번-103028	2	서울특별시	은평구	11380	서울특별시 은평구 응암로29길 4-1	서울특별시 은평구 응암동 117-40	37.59632006	126.9186563		녹번119안전센터	N	1993	5	은평소방서	02-6981-6044	2025-04-08
은평-녹번-103029	2	서울특별시	은평구	11380	서울특별시 은평구 은평로8길 44-3	서울특별시 은평구 응암동 118-7	37.59680259	126.918318		녹번119안전센터	N	1993	5	은평소방서	02-6981-6044	2025-04-08
은평-녹번-103030	2	서울특별시	은평구	11380	서울특별시 은평구 응암로29길 20-6 응암동 다세대주택	서울특별시 은평구 응암동 118-72 응암동 다세대주택	37.597112	126.917041		녹번119안전센터	N	1993	5	은평소방서	02-6981-6044	2025-04-08
은평-녹번-103031	2	서울특별시	은평구	11380	서울특별시 은평구 응암로29길 17-1 팔팔하오빌	서울특별시 은평구 응암동 121-7 팔팔하오빌	37.596474	126.917117	팔팔하오빌	녹번119안전센터	N	1993	5	은평소방서	02-6981-6044	2025-04-08
은평-녹번-103032	2	서울특별시	은평구	11380	서울특별시 은평구 응암로29길 19-9	서울특별시 은평구 응암동 121-50	37.59623405	126.9169012		녹번119안전센터	N	1993	5	은평소방서	02-6981-6044	2025-04-08
은평-녹번-103033	2	서울특별시	은평구	11380	서울특별시 은평구 백련산로 121	서울특별시 은평구 응암동 224	37.596437	126.9234954		녹번119안전센터	N	1993	5	은평소방서	02-6981-6044	2025-04-08
은평-녹번-103034	2	서울특별시	은평구	11380	서울특별시 은평구 응암로30길 5-18 은성아트빌	서울특별시 은평구 응암동 106-9 은성아트빌	37.596717	126.920603	은성아트빌	녹번119안전센터	N	1995	5	은평소방서	02-6981-6044	2025-04-08
은평-녹번-103035	2	서울특별시	은평구	11380	서울특별시 은평구 백련산로6길 9-1	서울특별시 은평구 응암동 225-1	37.594763	126.924085		녹번119안전센터	N	1995	5	은평소방서	02-6981-6044	2025-04-08
은평-녹번-103036	2	서울특별시	은평구	11380	서울특별시 은평구 백련산로4길 13-12 녹스빌2동	서울특별시 은평구 응암동 227-71 녹스빌2동	37.59535	126.924757	녹스빌2동	녹번119안전센터	N	1995	5	은평소방서	02-6981-6044	2025-04-08
은평-녹번-103037	2	서울특별시	은평구	11380	서울특별시 은평구 백련산로4길 21	서울특별시 은평구 응암동 227-39	37.59482454	126.9253953		녹번119안전센터	N	1995	5	은평소방서	02-6981-6044	2025-04-08
은평-녹번-103038	1	서울특별시	은평구	11380	서울특별시 은평구 응암로 264 서울빌딩	서울특별시 은평구 응암동 427-38 서울빌딩	37.595122	126.918614	서울빌딩	녹번119안전센터	N	1995	5	은평소방서	02-6981-6044	2025-04-08
은평-녹번-103039	2	서울특별시	은평구	11380	서울특별시 은평구 응암로29길 12-7	서울특별시 은평구 응암동 118-65	37.59694581	126.918013		녹번119안전센터	N	1995	5	은평소방서	02-6981-6044	2025-04-08
은평-녹번-103040	1	서울특별시	은평구	11380	서울특별시 은평구 진흥로 200 녹번파출소에서 구기터널방향100미터	서울특별시 은평구 녹번동 115-27 녹번파출소에서 구기터널방향100미터	37.609252	126.932638	녹번파출소에서 구기터널방향 100미터	녹번119안전센터	N	1996	5	은평소방서	02-6981-6044	2025-04-08
은평-녹번-103041	2	서울특별시	은평구	11380	서울특별시 은평구 응암로24길 17	서울특별시 은평구 응암동 419-81	37.594231	126.92016		녹번119안전센터	N	1996	5	은평소방서	02-6981-6044	2025-04-08
은평-녹번-103012	2	서울특별시	은평구	11380	서울특별시 은평구 은평로11길 14-1	서울특별시 은평구 녹번동 156-35	37.60211423	126.923604		녹번119안전센터	N	1987	5	은평소방서	02-6981-6044	2025-04-08
은평-녹번-103013	1	서울특별시	은평구	11380	서울특별시 은평구 통일로 684 서울혁신파크 창고 앞도로	서울특별시 은평구 녹번동 5-29 서울혁신파크 창고 앞도로	37.60951	126.934419	서울혁신파크 창고 앞 도로	녹번119안전센터	N	1988	5	은평소방서	02-6981-6044	2025-04-08
은평-녹번-103014	2	서울특별시	은평구	11380	서울특별시 은평구 백련산로7길 13-4	서울특별시 은평구 응암동 452-2	37.596354	126.922038		녹번119안전센터	N	1988	5	은평소방서	02-6981-6044	2025-04-08
은평-녹번-103015	2	서울특별시	은평구	11380	서울특별시 은평구 가좌로9길 15-5 래플즈호텔 앞	서울특별시 은평구 응암동 590-27 래플즈호텔 앞	37.589297	126.915389	래플즈호텔	녹번119안전센터	N	1989	5	은평소방서	02-6981-6044	2025-04-08
은평-녹번-103016	2	서울특별시	은평구	11380	서울특별시 은평구 응암로29길 11-12 주택가	서울특별시 은평구 응암동 120-19 주택가	37.595776	126.917505		녹번119안전센터	N	2019	5	은평소방서	02-6981-6044	2025-04-08
은평-녹번-103017	2	서울특별시	은평구	11380	서울특별시 은평구 가좌로9길 3-8 포시즌마트24편의점	서울특별시 은평구 응암동 590-11 포시즌마트24편의점	37.589681	126.916605	포시즌마트24편의점	녹번119안전센터	N	1990	5	은평소방서	02-6981-6044	2025-04-08
은평-녹번-103018	2	서울특별시	은평구	11380	서울특별시 은평구 응암로30길 27-3	서울특별시 은평구 응암동 220-86	37.595386	126.922268		녹번119안전센터	N	1991	5	은평소방서	02-6981-6044	2025-04-08
은평-녹번-103019	2	서울특별시	은평구	11380	서울특별시 은평구 응암로30길 13	서울특별시 은평구 응암동 452-28	37.595836	126.920672		녹번119안전센터	N	1991	5	은평소방서	02-6981-6044	2025-04-08
은평-녹번-103020	2	서울특별시	은평구	11380	서울특별시 은평구 응암로22길 21 애니카랜드 앞	서울특별시 은평구 응암동 419-100 애니카랜드 앞	37.593489	126.920608	애니카랜드	녹번119안전센터	N	1993	5	은평소방서	02-6981-6044	2025-04-08
은평-녹번-103021	1	서울특별시	은평구	11380	서울특별시 은평구 응암로32길 6-8 홍진관중국집	서울특별시 은평구 응암동 107-6 홍진관중국집	37.597143	126.920113	홍진관중국집	녹번119안전센터	N	1993	5	은평소방서	02-6981-6044	2025-04-08
은평-녹번-103022	2	서울특별시	은평구	11380	서울특별시 은평구 응암로22길 39 피자오래	서울특별시 은평구 응암동 241-46 피자오래	37.593179	126.922386	피자오래	녹번119안전센터	N	1993	5	은평소방서	02-6981-6044	2025-04-08
은평-녹번-103023	2	서울특별시	은평구	11380	서울특별시 은평구 백련산로7길 7	서울특별시 은평구 응암동 218-10	37.596702	126.921638		녹번119안전센터	N	2017	5	은평소방서	02-6981-6044	2025-04-08
은평-녹번-103024	2	서울특별시	은평구	11380	서울특별시 은평구 은평로13길 25-19	서울특별시 은평구 녹번동 157-18	37.60310705	126.924097		녹번119안전센터	N	1993	5	은평소방서	02-6981-6044	2025-04-08
은평-녹번-103025	2	서울특별시	은평구	11380	서울특별시 은평구 응암로 262 응암하이빌	서울특별시 은평구 응암동 427-42 응암하이빌	37.595042	126.918566	응암하이빌	녹번119안전센터	N	1993	5	은평소방서	02-6981-6044	2025-04-08
은평-녹번-103026	2	서울특별시	은평구	11380	서울특별시 은평구 응암로 275-1	서울특별시 은평구 응암동 117-32	37.59638	126.9188917		녹번119안전센터	N	1993	5	은평소방서	02-6981-6044	2025-04-08
은평-녹번-102130	2	서울특별시	은평구	11380	서울특별시 은평구 응암로34길 22	서울특별시 은평구 응암동 105-2	37.597554	126.923061		녹번119안전센터	N	2012	5	은평소방서	02-6981-6044	2025-04-08
은평-녹번-102131	2	서울특별시	은평구	11380	서울특별시 은평구 불광천길 486	서울특별시 은평구 응암동 122-32	37.59562679	126.915714		녹번119안전센터	N	2012	5	은평소방서	02-6981-6044	2025-04-08
은평-녹번-102132	1	서울특별시	은평구	11380	서울특별시 은평구 은평로18길 5-2	서울특별시 은평구 응암동 59-50	37.600396	126.93163		녹번119안전센터	N	2014	5	은평소방서	02-6981-6044	2025-04-08
은평-녹번-102133	2	서울특별시	은평구	11380	서울특별시 은평구 응암로25길 11-1 거성쉐르빌	서울특별시 은평구 응암동 123-41 거성쉐르빌	37.59531	126.916933		녹번119안전센터	N	2022	5	은평소방서	02-6981-6044	2025-04-08
은평-녹번-103001	1	서울특별시	은평구	11380	서울특별시 은평구 응암로 252 양평해장국	서울특별시 은평구 응암동 427-126 양평해장국	37.594328	126.918281	양평해장국	녹번119안전센터	N	1969	5	은평소방서	02-6981-6044	2025-04-08
은평-녹번-103002	2	서울특별시	은평구	11380	서울특별시 은평구 은평로13길 11-13 선정하우징	서울특별시 은평구 응암동 85-6 선정하우징	37.601919	126.924707	선정하우징	녹번119안전센터	N	1984	5	은평소방서	02-6981-6044	2025-04-08
은평-녹번-103003	2	서울특별시	은평구	11380	서울특별시 은평구 백련산로 91	서울특별시 은평구 응암동 231-91	37.59381828	126.922923		녹번119안전센터	N	1982	5	은평소방서	02-6981-6044	2025-04-08
은평-녹번-103004	2	서울특별시	은평구	11380	서울특별시 은평구 응암로22길 1 할매순대국	서울특별시 은평구 응암동 427-125 할매순대국	37.593779	126.918409	할매순대국	녹번119안전센터	N	1984	5	은평소방서	02-6981-6044	2025-04-08
은평-녹번-103005	2	서울특별시	은평구	11380	서울특별시 은평구 응암로22길 13 수헤어	서울특별시 은평구 응암동 427-71 수헤어	37.593615	126.919579	수헤어	녹번119안전센터	N	1984	5	은평소방서	02-6981-6044	2025-04-08
은평-녹번-103006	2	서울특별시	은평구	11380	서울특별시 은평구 응암로24길 6 신응암시장 (후문앞)	서울특별시 은평구 응암동 427-112 신응암시장 (후문앞)	37.594535	126.918929	신응암시장 후문 앞	녹번119안전센터	N	1984	5	은평소방서	02-6981-6044	2025-04-08
은평-녹번-103007	2	서울특별시	은평구	11380	서울특별시 은평구 응암로 278 은평냉동	서울특별시 은평구 응암동 107-19 은평냉동	37.596261	126.919451	은평냉동	녹번119안전센터	N	1985	5	은평소방서	02-6981-6044	2025-04-08
은평-녹번-103008	2	서울특별시	은평구	11380	서울특별시 은평구 은평로13길 5 솔마트 앞	서울특별시 은평구 응암동 85-19 솔마트 앞	37.601653	126.925527	솔마트	녹번119안전센터	N	1985	5	은평소방서	02-6981-6044	2025-04-08
은평-녹번-103009	2	서울특별시	은평구	11380	서울특별시 은평구 은평로 157-9	서울특별시 은평구 응암동 86-21	37.60146567	126.925276		녹번119안전센터	N	1985	5	은평소방서	02-6981-6044	2025-04-08
은평-녹번-103010	2	서울특별시	은평구	11380	서울특별시 은평구 은평로11길 16-2	서울특별시 은평구 녹번동 156-54	37.60228031	126.923636		녹번119안전센터	N	1987	5	은평소방서	02-6981-6044	2025-04-08
은평-녹번-103011	2	서울특별시	은평구	11380	서울특별시 은평구 은평로11길 18-13 골드클래스	서울특별시 은평구 녹번동 157-26 골드클래스	37.602375	126.924071	골드클래스	녹번119안전센터	N	1987	5	은평소방서	02-6981-6044	2025-04-08
은평-녹번-102114	2	서울특별시	은평구	11380	서울특별시 은평구 은평로4길 7-18	서울특별시 은평구 응암동 111-34	37.59888185	126.918042		녹번119안전센터	N	2003	5	은평소방서	02-6981-6044	2025-04-08
은평-녹번-102115	1	서울특별시	은평구	11380	서울특별시 은평구 백련산로 141	서울특별시 은평구 응암동 194-10	37.59788435	126.9247576		녹번119안전센터	N	2003	5	은평소방서	02-6981-6044	2025-04-08
은평-녹번-102116	1	서울특별시	은평구	11380	서울특별시 은평구 백련산로14길 5	서울특별시 은평구 응암동 94-13	37.60061854	126.9277006		녹번119안전센터	N	2004	5	은평소방서	02-6981-6044	2025-04-08
은평-녹번-102117	1	서울특별시	은평구	11380	서울특별시 은평구 은평로 154 LG전자	서울특별시 은평구 응암동 98-1 LG전자	37.600832	126.9248	LG전자	녹번119안전센터	N	2004	5	은평소방서	02-6981-6044	2025-04-08
은평-녹번-102118	2	서울특별시	은평구	11380	서울특별시 은평구 은평로20길 26	서울특별시 은평구 응암동 35-20	37.598595	126.933936		녹번119안전센터	N	2004	5	은평소방서	02-6981-6044	2025-04-08
은평-녹번-102119	1	서울특별시	은평구	11380	서울특별시 은평구 은평로 236 유이비인후과	서울특별시 은평구 응암동 2-37 유이비인후과	37.600817	126.933857	유이비인후과	녹번119안전센터	N	2004	5	은평소방서	02-6981-6044	2025-04-08
은평-녹번-102120	2	서울특별시	은평구	11380	서울특별시 은평구 응암로 294	서울특별시 은평구 응암동 104-42	37.59767955	126.9206222		녹번119안전센터	N	2005	5	은평소방서	02-6981-6044	2025-04-08
은평-녹번-102121	2	서울특별시	은평구	11380	서울특별시 은평구 가좌로6길 27-1 일반주택	서울특별시 은평구 응암동 339-11 일반주택	37.588663	126.920537		녹번119안전센터	N	2006	5	은평소방서	02-6981-6044	2025-04-08
은평-녹번-102122	2	서울특별시	은평구	11380	서울특별시 은평구 응암로34가길 5	서울특별시 은평구 응암동 103-22	37.59858803	126.9222657		녹번119안전센터	N	2006	5	은평소방서	02-6981-6044	2025-04-08
은평-녹번-102123	2	서울특별시	은평구	11380	서울특별시 은평구 은평로14길 22	서울특별시 은평구 응암동 81-148	37.59957021	126.928504		녹번119안전센터	N	2006	5	은평소방서	02-6981-6044	2025-04-08
은평-녹번-102124	1	서울특별시	은평구	11380	서울특별시 은평구 응암로 291-1 향원	서울특별시 은평구 응암동 116-25 향원	37.597611	126.920196	향원	녹번119안전센터	N	2006	5	은평소방서	02-6981-6044	2025-04-08
은평-녹번-102125	2	서울특별시	은평구	11380	서울특별시 은평구 은평로22길 7-1	서울특별시 은평구 응암동 2-82	37.600056	126.934569		녹번119안전센터	N	2007	5	은평소방서	02-6981-6044	2025-04-08
은평-녹번-102126	1	서울특별시	은평구	11380	서울특별시 은평구 은평로 90	서울특별시 은평구 응암동	37.599358	126.917914		녹번119안전센터	N	2007	5	은평소방서	02-6981-6044	2025-04-08
은평-녹번-102127	1	서울특별시	은평구	11380	서울특별시 은평구 응암로 319	서울특별시 은평구 응암동 109-3	37.59971094	126.9214509		녹번119안전센터	N	2011	5	은평소방서	02-6981-6044	2025-04-08
은평-녹번-102128	2	서울특별시	은평구	11380	서울특별시 은평구 응암로34길 10-5	서울특별시 은평구 응암동 104-18	37.59794012	126.9215706		녹번119안전센터	N	2011	5	은평소방서	02-6981-6044	2025-04-08
은평-녹번-102129	2	서울특별시	은평구	11380	서울특별시 은평구 불광천길 490 길훈아파트	서울특별시 은평구 응암동 122-30 길훈아파트	37.595667	126.915666	길훈아파트	녹번119안전센터	N	2011	5	은평소방서	02-6981-6044	2025-04-08
은평-녹번-102098	2	서울특별시	은평구	11380	서울특별시 은평구 불광천길 548 예승	서울특별시 은평구 응암동 113-2 예승	37.598394	126.916412	예승	녹번119안전센터	N	1997	5	은평소방서	02-6981-6044	2025-04-08
은평-녹번-102099	1	서울특별시	은평구	11380	서울특별시 은평구 은평로 246 동원바둑	서울특별시 은평구 응암동 1-18 동원바둑	37.600697	126.935028	동원바둑	녹번119안전센터	N	1997	5	은평소방서	02-6981-6044	2025-04-08
은평-녹번-102100	2	서울특별시	은평구	11380	서울특별시 은평구 은평로14길 10-10	서울특별시 은평구 응암동 81-156	37.60061979	126.9281331		녹번119안전센터	N	1998	5	은평소방서	02-6981-6044	2025-04-08
은평-녹번-102101	1	서울특별시	은평구	11380	서울특별시 은평구 은평로 153	서울특별시 은평구 응암동 86-25	37.60120647	126.924555		녹번119안전센터	N	1998	5	은평소방서	02-6981-6044	2025-04-08
은평-녹번-102102	2	서울특별시	은평구	11380	서울특별시 은평구 은평로6길 16 신진공고	서울특별시 은평구 응암동 114-1 신진공고	37.598223	126.919233	신진공고	녹번119안전센터	N	1998	5	은평소방서	02-6981-6044	2025-04-08
은평-녹번-102103	2	서울특별시	은평구	11380	서울특별시 은평구 가좌로6길 23 일반주택	서울특별시 은평구 응암동 287-36 일반주택	37.588288	126.920508		녹번119안전센터	N	2001	5	은평소방서	02-6981-6044	2025-04-08
은평-녹번-102104	1	서울특별시	은평구	11380	서울특별시 은평구 응암로 307-1	서울특별시 은평구 응암동 109-20	37.59909951	126.9208831		녹번119안전센터	N	2001	5	은평소방서	02-6981-6044	2025-04-08
은평-녹번-102105	2	서울특별시	은평구	11380	서울특별시 은평구 은평로4길 21-10	서울특별시 은평구 응암동 118-24	37.597332	126.917741		녹번119안전센터	N	2001	5	은평소방서	02-6981-6044	2025-04-08
은평-녹번-102106	2	서울특별시	은평구	11380	서울특별시 은평구 응암로29길 15-16	서울특별시 은평구 응암동 121-56	37.59604809	126.9171576		녹번119안전센터	N	2001	5	은평소방서	02-6981-6044	2025-04-08
은평-녹번-102107	1	서울특별시	은평구	11380	서울특별시 은평구 은평로22길 21	서울특별시 은평구 응암동 2-39	37.599305	126.934913		녹번119안전센터	N	2002	5	은평소방서	02-6981-6044	2025-04-08
은평-녹번-102108	2	서울특별시	은평구	11380	서울특별시 은평구 은평로11길 6 하늘빛어린이집	서울특별시 은평구 응암동 85-56 하늘빛어린이집	37.601212	126.923414	하늘빛어린이집	녹번119안전센터	N	2003	5	은평소방서	02-6981-6044	2025-04-08
은평-녹번-102109	1	서울특별시	은평구	11380	서울특별시 은평구 녹번로 16	서울특별시 은평구 녹번동 85-4	37.60369969	126.927936		녹번119안전센터	N	2003	5	은평소방서	02-6981-6044	2025-04-08
은평-녹번-102110	2	서울특별시	은평구	11380	서울특별시 은평구 통일로 595 은솔유치원	서울특별시 은평구 응암동 22-2 은솔유치원	37.599848	126.936079	은솔유치원	녹번119안전센터	N	2003	5	은평소방서	02-6981-6044	2025-04-08
은평-녹번-102111	1	서울특별시	은평구	11380	서울특별시 은평구 은평로16나길 10-1	서울특별시 은평구 응암동 42-51	37.59918117	126.928483		녹번119안전센터	N	2003	5	은평소방서	02-6981-6044	2025-04-08
은평-녹번-102112	1	서울특별시	은평구	11380	서울특별시 은평구 응암로34가길 6-3	서울특별시 은평구 응암동 102-42	37.59853649	126.922658		녹번119안전센터	N	2003	5	은평소방서	02-6981-6044	2025-04-08
은평-녹번-102113	2	서울특별시	은평구	11380	서울특별시 은평구 은평로11길 6-25	서울특별시 은평구 응암동 85-36	37.60162065	126.92472		녹번119안전센터	N	2003	5	은평소방서	02-6981-6044	2025-04-08
은평-녹번-102082	2	서울특별시	은평구	11380	서울특별시 은평구 응암로34가길 12-1	서울특별시 은평구 응암동 102-82	37.599015	126.9228804		녹번119안전센터	N	1995	5	은평소방서	02-6981-6044	2025-04-08
은평-녹번-102083	2	서울특별시	은평구	11380	서울특별시 은평구 은평로18길 12-11	서울특별시 은평구 응암동 73-10	37.600246	126.930721		녹번119안전센터	N	1995	5	은평소방서	02-6981-6044	2025-04-08
은평-녹번-102084	2	서울특별시	은평구	11380	서울특별시 은평구 은평로10길 15	서울특별시 은평구 응암동 99-70	37.599417	126.923831		녹번119안전센터	N	1996	5	은평소방서	02-6981-6044	2025-04-08
은평-녹번-102085	2	서울특별시	은평구	11380	서울특별시 은평구 은평로14길 11	서울특별시 은평구 응암동 81-45	37.600389	126.928952		녹번119안전센터	N	1996	5	은평소방서	02-6981-6044	2025-04-08
은평-녹번-102086	2	서울특별시	은평구	11380	서울특별시 은평구 응암로25길 18	서울특별시 은평구 응암동 121-34	37.59548839	126.9165061		녹번119안전센터	N	1996	5	은평소방서	02-6981-6044	2025-04-08
은평-녹번-102088	2	서울특별시	은평구	11380	서울특별시 은평구 응암로34길 23-24	서울특별시 은평구 응암동 195-73	37.59800211	126.924312		녹번119안전센터	N	1996	5	은평소방서	02-6981-6044	2025-04-08
은평-녹번-102089	2	서울특별시	은평구	11380	서울특별시 은평구 응암로18길 11-1 일반주택	서울특별시 은평구 응암동 397-257 일반주택	37.592219	126.919254		녹번119안전센터	N	1996	5	은평소방서	02-6981-6044	2025-04-08
은평-녹번-102090	2	서울특별시	은평구	11380	서울특별시 은평구 은평로20가길 3	서울특별시 은평구 응암동 13-8	37.598987	126.933953		녹번119안전센터	N	1996	5	은평소방서	02-6981-6044	2025-04-08
은평-녹번-102091	1	서울특별시	은평구	11380	서울특별시 은평구 서오릉로 48	서울특별시 은평구 녹번동 80-34	37.60530801	126.924175		녹번119안전센터	N	1996	5	은평소방서	02-6981-6044	2025-04-08
은평-녹번-102092	2	서울특별시	은평구	11380	서울특별시 은평구 은평로4길 37	서울특별시 은평구 응암동 121-17	37.595912	126.9166383		녹번119안전센터	N	1996	5	은평소방서	02-6981-6044	2025-04-08
은평-녹번-102093	1	서울특별시	은평구	11380	서울특별시 은평구 은평로 108 메트로럭스주상복합APT	서울특별시 은평구 응암동 110-9 메트로럭스주상복합APT	37.599729	126.919562	메트로럭스주상복합??	녹번119안전센터	N	1996	5	은평소방서	02-6981-6044	2025-04-08
은평-녹번-102094	1	서울특별시	은평구	11380	서울특별시 은평구 녹번로 54 호연 어린이공원 표지앞	서울특별시 은평구 녹번동 95-43 호연 어린이공원 표지앞	37.605766	126.930351	호연 어린이공원 표지 앞	녹번119안전센터	N	1997	5	은평소방서	02-6981-6044	2025-04-08
은평-녹번-102095	2	서울특별시	은평구	11380	서울특별시 은평구 은평로 182-11 미래하임	서울특별시 은평구 응암동 92-2 미래하임	37.600767	126.928046	미래하임	녹번119안전센터	N	1997	5	은평소방서	02-6981-6044	2025-04-08
은평-녹번-102096	1	서울특별시	은평구	11380	서울특별시 은평구 은평로 204-2	서울특별시 은평구 응암동 74-12	37.60085691	126.9303443		녹번119안전센터	N	1997	5	은평소방서	02-6981-6044	2025-04-08
은평-녹번-102097	1	서울특별시	은평구	11380	서울특별시 은평구 응암로25길 12 동건하이빌	서울특별시 은평구 응암동 121-31 동건하이빌	37.595204	126.917159	동건하이빌	녹번119안전센터	N	1997	5	은평소방서	02-6981-6044	2025-04-08
은평-현장-209047	2	서울특별시	은평구	11380	서울특별시 은평구 불광로 169 은평제일교회	서울특별시 은평구 불광동 191-8 은평제일교회	37.621643	126.931237	은평제일교회	현장대응단	N	1994	5	은평소방서	02-6981-6044	2025-04-08
은평-녹번-102067	2	서울특별시	은평구	11380	서울특별시 은평구 은평로8길 42	서울특별시 은평구 응암동 118-1	37.596984	126.9186711		녹번119안전센터	N	1994	5	은평소방서	02-6981-6044	2025-04-08
은평-녹번-102068	2	서울특별시	은평구	11380	서울특별시 은평구 응암로21가길 25 월드빌아파트	서울특별시 은평구 응암동 120-6 월드빌아파트	37.595763	126.918011	월드빌아파트	녹번119안전센터	N	1994	5	은평소방서	02-6981-6044	2025-04-08
은평-녹번-102069	2	서울특별시	은평구	11380	서울특별시 은평구 불광천길 520 우리스페이스아파트	서울특별시 은평구 응암동 113-28 우리스페이스아파트	37.59697	126.916035	우리스페이스아파트	녹번119안전센터	N	1994	5	은평소방서	02-6981-6044	2025-04-08
은평-녹번-102070	1	서울특별시	은평구	11380	서울특별시 은평구 은평로 111 은평이마트	서울특별시 은평구 응암동 90-1 은평이마트	37.600493	126.920471	은평이마트	녹번119안전센터	N	1994	5	은평소방서	02-6981-6044	2025-04-08
은평-녹번-102071	1	서울특별시	은평구	11380	서울특별시 은평구 은평로 101	서울특별시 은평구 응암동 90-14	37.60000304	126.919058		녹번119안전센터	N	1994	5	은평소방서	02-6981-6044	2025-04-08
은평-녹번-102072	1	서울특별시	은평구	11380	서울특별시 은평구 응암로 333	서울특별시 은평구 응암동 88-33	37.60095714	126.9220609		녹번119안전센터	N	1994	5	은평소방서	02-6981-6044	2025-04-08
은평-녹번-102073	2	서울특별시	은평구	11380	서울특별시 은평구 백련산로 163	서울특별시 은평구 응암동 159-7	37.59951366	126.9262621		녹번119안전센터	N	1994	5	은평소방서	02-6981-6044	2025-04-08
은평-녹번-102074	1	서울특별시	은평구	11380	서울특별시 은평구 은평로 167	서울특별시 은평구 응암동 84-13	37.60147099	126.926135		녹번119안전센터	N	1994	5	은평소방서	02-6981-6044	2025-04-08
은평-녹번-102075	1	서울특별시	은평구	11380	서울특별시 은평구 백련산로 147	서울특별시 은평구 응암동 195-7	37.59833272	126.925267		녹번119안전센터	N	1994	5	은평소방서	02-6981-6044	2025-04-08
은평-녹번-102076	2	서울특별시	은평구	11380	서울특별시 은평구 은평로10길 20 응암동 우석파크빌	서울특별시 은평구 응암동 101-1 응암동 우석파크빌	37.598969	126.924124	우석파크빌	녹번119안전센터	N	1994	5	은평소방서	02-6981-6044	2025-04-08
은평-녹번-102077	2	서울특별시	은평구	11380	서울특별시 은평구 응암로34나길 7	서울특별시 은평구 응암동 102-33	37.59832919	126.9231095		녹번119안전센터	N	1995	5	은평소방서	02-6981-6044	2025-04-08
은평-녹번-102078	2	서울특별시	은평구	11380	서울특별시 은평구 은평로18길 13	서울특별시 은평구 응암동 53-1	37.599894	126.931146		녹번119안전센터	N	1995	5	은평소방서	02-6981-6044	2025-04-08
은평-녹번-102079	2	서울특별시	은평구	11380	서울특별시 은평구 은평로12길 12 대원건축설비	서울특별시 은평구 응암동 99-25 대원건축설비	37.599719	126.92525	대원건축설비	녹번119안전센터	N	1995	5	은평소방서	02-6981-6044	2025-04-08
은평-녹번-102080	1	서울특별시	은평구	11380	서울특별시 은평구 응암로 269 FILA	서울특별시 은평구 응암동 119-1 FILA	37.596009	126.919045	FILA	녹번119안전센터	N	1995	5	은평소방서	02-6981-6044	2025-04-08
은평-녹번-102081	1	서울특별시	은평구	11380	서울특별시 은평구 응암로 301 은평중앙교회	서울특별시 은평구 응암동 116-10 은평중앙교회	37.598297	126.920688	은평중앙교회	녹번119안전센터	N	1995	5	은평소방서	02-6981-6044	2025-04-08
은평-녹번-102052	2	서울특별시	은평구	11380	서울특별시 은평구 은평로8길 16 간판인테리어	서울특별시 은평구 응암동 110-31 간판인테리어	37.598866	126.920162	간판인테리어	녹번119안전센터	N	1993	5	은평소방서	02-6981-6044	2025-04-08
은평-녹번-102053	2	서울특별시	은평구	11380	서울특별시 은평구 은평로12길 13-14	서울특별시 은평구 응암동 97-48	37.599767	126.9260842		녹번119안전센터	N	1994	5	은평소방서	02-6981-6044	2025-04-08
은평-녹번-102054	1	서울특별시	은평구	11380	서울특별시 은평구 백련산로 168 베스트스터디학원	서울특별시 은평구 응암동 149-16 베스트스터디학원	37.599685	126.926741	베스트스터디학원	녹번119안전센터	N	1994	5	은평소방서	02-6981-6044	2025-04-08
은평-녹번-102055	1	서울특별시	은평구	11380	서울특별시 은평구 백련산로 151 지번 건너편 인도	서울특별시 은평구 응암동 182-5 지번 건너편 인도	37.598629	126.925793	지번 건너편 인도	녹번119안전센터	N	1994	5	은평소방서	02-6981-6044	2025-04-08
은평-녹번-102056	2	서울특별시	은평구	11380	서울특별시 은평구 은평로12길 5	서울특별시 은평구 응암동 98-4	37.60052176	126.9253728		녹번119안전센터	N	1994	5	은평소방서	02-6981-6044	2025-04-08
은평-녹번-102057	1	서울특별시	은평구	11380	서울특별시 은평구 은평로20나길 11	서울특별시 은평구 응암동 37-4	37.597935	126.932308		녹번119안전센터	N	1994	5	은평소방서	02-6981-6044	2025-04-08
은평-녹번-102058	1	서울특별시	은평구	11380	서울특별시 은평구 은평로 188 왕자빌딩	서울특별시 은평구 응암동 81-208 왕자빌딩	37.601295	126.928626	왕자빌딩	녹번119안전센터	N	1994	5	은평소방서	02-6981-6044	2025-04-08
은평-녹번-102059	1	서울특별시	은평구	11380	서울특별시 은평구 은평로 178	서울특별시 은평구 응암동 93-3	37.60124551	126.9275019		녹번119안전센터	N	1994	5	은평소방서	02-6981-6044	2025-04-08
은평-녹번-102060	1	서울특별시	은평구	11380	서울특별시 은평구 은평로 166 제일전파사	서울특별시 은평구 응암동 96-14 제일전파사	37.601112	126.926134	제일전파사	녹번119안전센터	N	1994	5	은평소방서	02-6981-6044	2025-04-08
은평-녹번-102061	2	서울특별시	은평구	11380	서울특별시 은평구 백련산로14길 20-1	서울특별시 은평구 응암동 95-15	37.599332	126.9278718		녹번119안전센터	N	1994	5	은평소방서	02-6981-6044	2025-04-08
은평-녹번-102062	1	서울특별시	은평구	11380	서울특별시 은평구 은평로 82 해태드림타운	서울특별시 은평구 응암동 738 해태드림타운	37.599143	126.916813	해태드림타운	녹번119안전센터	N	1994	5	은평소방서	02-6981-6044	2025-04-08
은평-녹번-102063	1	서울특별시	은평구	11380	서울특별시 은평구 은평로 141	서울특별시 은평구 응암동 87-40	37.60087189	126.9232624		녹번119안전센터	N	1994	5	은평소방서	02-6981-6044	2025-04-08
은평-녹번-102064	1	서울특별시	은평구	11380	서울특별시 은평구 은평로 193-2	서울특별시 은평구 녹번동 193	37.602108	126.928988		녹번119안전센터	N	1994	5	은평소방서	02-6981-6044	2025-04-08
은평-녹번-102065	1	서울특별시	은평구	11380	서울특별시 은평구 은평로 148	서울특별시 은평구 응암동 98-48	37.600617	126.9240926		녹번119안전센터	N	1994	5	은평소방서	02-6981-6044	2025-04-08
은평-녹번-102066	2	서울특별시	은평구	11380	서울특별시 은평구 은평로8길 29 서강스카이빌3	서울특별시 은평구 응암동 116-24 서강스카이빌3	37.597786	126.919326	서강스카이빌3	녹번119안전센터	N	1994	5	은평소방서	02-6981-6044	2025-04-08
은평-녹번-102036	2	서울특별시	은평구	11380	서울특별시 은평구 은평로 122	서울특별시 은평구 응암동 109-6	37.600064	126.9213444		녹번119안전센터	N	1993	5	은평소방서	02-6981-6044	2025-04-08
은평-녹번-102037	2	서울특별시	은평구	11380	서울특별시 은평구 백련산로14길 15	서울특별시 은평구 응암동 94-23	37.59977993	126.9278999		녹번119안전센터	N	1993	5	은평소방서	02-6981-6044	2025-04-08
은평-녹번-102038	1	서울특별시	은평구	11380	서울특별시 은평구 응암로 302-1	서울특별시 은평구 응암동 104-10	37.598327	126.9210686		녹번119안전센터	N	1993	5	은평소방서	02-6981-6044	2025-04-08
은평-녹번-102039	2	서울특별시	은평구	11380	서울특별시 은평구 은평로14길 16	서울특별시 은평구 응암동 81-117	37.599986	126.9286055		녹번119안전센터	N	1993	5	은평소방서	02-6981-6044	2025-04-08
은평-녹번-102040	2	서울특별시	은평구	11380	서울특별시 은평구 녹번로7길 14-3 아르빌2	서울특별시 은평구 녹번동 120-81 아르빌2	37.607013	126.930019	아르빌2	녹번119안전센터	N	1993	5	은평소방서	02-6981-6044	2025-04-08
은평-녹번-102041	2	서울특별시	은평구	11380	서울특별시 은평구 은평로16길 22-7	서울특별시 은평구 응암동 48-5	37.599318	126.929209		녹번119안전센터	N	1993	5	은평소방서	02-6981-6044	2025-04-08
은평-녹번-102042	1	서울특별시	은평구	11380	서울특별시 은평구 백련산로 136 경원에이스빌	서울특별시 은평구 응암동 195-25 경원에이스빌	37.597386	126.924613	경원에이스빌	녹번119안전센터	N	1993	5	은평소방서	02-6981-6044	2025-04-08
은평-녹번-102043	2	서울특별시	은평구	11380	서울특별시 은평구 은평로10길 5-2	서울특별시 은평구 응암동 98-74	37.599956	126.923406		녹번119안전센터	N	1993	5	은평소방서	02-6981-6044	2025-04-08
은평-녹번-102044	1	서울특별시	은평구	11380	서울특별시 은평구 녹번로 34	서울특별시 은평구 녹번동 100-39	37.60493548	126.928663		녹번119안전센터	N	1993	5	은평소방서	02-6981-6044	2025-04-08
은평-녹번-102045	2	서울특별시	은평구	11380	서울특별시 은평구 은평로16길 22 신일빌딩	서울특별시 은평구 응암동 39-13 신일빌딩	37.599406	126.929829	신일빌딩	녹번119안전센터	N	1993	5	은평소방서	02-6981-6044	2025-04-08
은평-녹번-102046	2	서울특별시	은평구	11380	서울특별시 은평구 은평로20길 17-31	서울특별시 은평구 응암동 8-37	37.59951	126.934119		녹번119안전센터	N	1993	5	은평소방서	02-6981-6044	2025-04-08
은평-녹번-102047	1	서울특별시	은평구	11380	서울특별시 은평구 은평로 206	서울특별시 은평구 응암동 74-3	37.60107897	126.930555		녹번119안전센터	N	1993	5	은평소방서	02-6981-6044	2025-04-08
은평-녹번-102048	1	서울특별시	은평구	11380	서울특별시 은평구 은평로 216 명성학원	서울특별시 은평구 응암동 64-3 명성학원	37.601015	126.931635	명성학원	녹번119안전센터	N	1993	5	은평소방서	02-6981-6044	2025-04-08
은평-녹번-102049	1	서울특별시	은평구	11380	서울특별시 은평구 은평로 230	서울특별시 은평구 응암동 61-4	37.60083976	126.9331024		녹번119안전센터	N	1993	5	은평소방서	02-6981-6044	2025-04-08
은평-녹번-102050	1	서울특별시	은평구	11380	서울특별시 은평구 은평로 200-1 삼영빌딩	서울특별시 은평구 응암동 76-2 삼영빌딩	37.601143	126.93025	삼영빌딩	녹번119안전센터	N	1993	5	은평소방서	02-6981-6044	2025-04-08
은평-녹번-102051	2	서울특별시	은평구	11380	서울특별시 은평구 은평로4길 7	서울특별시 은평구 응암동 111-27	37.59872868	126.9173534		녹번119안전센터	N	1993	5	은평소방서	02-6981-6044	2025-04-08
은평-녹번-102019	2	서울특별시	은평구	11380	서울특별시 은평구 응암로34길 16	서울특별시 은평구 응암동 105-36	37.59792427	126.9223906		녹번119안전센터	N	1989	5	은평소방서	02-6981-6044	2025-04-08
은평-녹번-102020	2	서울특별시	은평구	11380	서울특별시 은평구 응암로32길 13	서울특별시 은평구 응암동 214-23	37.59712733	126.921847		녹번119안전센터	N	1989	5	은평소방서	02-6981-6044	2025-04-08
은평-녹번-102021	2	서울특별시	은평구	11380	서울특별시 은평구 은평로 111 은평이마트 부설주차장	서울특별시 은평구 응암동 90-1 은평이마트 부설주차장	37.600727	126.920225	은평이마트 부설주차장	녹번119안전센터	N	1989	5	은평소방서	02-6981-6044	2025-04-08
은평-녹번-102022	2	서울특별시	은평구	11380	서울특별시 은평구 은평로10길 13-15	서울특별시 은평구 응암동 99-1	37.599956	126.9240562		녹번119안전센터	N	1989	5	은평소방서	02-6981-6044	2025-04-08
은평-녹번-102023	2	서울특별시	은평구	11380	서울특별시 은평구 은평로18길 16-14	서울특별시 은평구 응암동 50-3	37.59970177	126.930364		녹번119안전센터	N	1990	5	은평소방서	02-6981-6044	2025-04-08
은평-녹번-102024	2	서울특별시	은평구	11380	서울특별시 은평구 은평로10길 17-5	서울특별시 은평구 응암동 99-66	37.59933017	126.9243247		녹번119안전센터	N	1990	5	은평소방서	02-6981-6044	2025-04-08
은평-녹번-102025	1	서울특별시	은평구	11380	서울특별시 은평구 은평로 103 조이팰리스아파트	서울특별시 은평구 응암동 90-23 조이팰리스아파트	37.599855	126.919313	조이팰리스아파트	녹번119안전센터	N	1990	5	은평소방서	02-6981-6044	2025-04-08
은평-녹번-102028	2	서울특별시	은평구	11380	서울특별시 은평구 녹번로6가길 9	서울특별시 은평구 녹번동 89-15	37.605119	126.9314926		녹번119안전센터	N	1990	5	은평소방서	02-6981-6044	2025-04-08
은평-녹번-102029	2	서울특별시	은평구	11380	서울특별시 은평구 백련산로 134	서울특별시 은평구 응암동 195-29	37.59709761	126.9244734		녹번119안전센터	N	1990	5	은평소방서	02-6981-6044	2025-04-08
은평-녹번-102030	2	서울특별시	은평구	11380	서울특별시 은평구 은평로20길 6	서울특별시 은평구 응암동 4-7	37.60046649	126.9332693		녹번119안전센터	N	1990	5	은평소방서	02-6981-6044	2025-04-08
은평-녹번-102031	2	서울특별시	은평구	11380	서울특별시 은평구 은평로6길 5 한성빌딩	서울특별시 은평구 응암동 110-13 한성빌딩	37.599245	126.919026	한성빌딩	녹번119안전센터	N	1990	5	은평소방서	02-6981-6044	2025-04-08
은평-녹번-102032	2	서울특별시	은평구	11380	서울특별시 은평구 은평로22길 35	서울특별시 은평구 응암동 8-22	37.598604	126.934739		녹번119안전센터	N	1991	5	은평소방서	02-6981-6044	2025-04-08
은평-녹번-102033	2	서울특별시	은평구	11380	서울특별시 은평구 응암로29길 15-2 연세어린이집	서울특별시 은평구 응암동 121-1 연세어린이집	37.59659	126.91746	연세어린이집	녹번119안전센터	N	1991	5	은평소방서	02-6981-6044	2025-04-08
은평-녹번-102034	2	서울특별시	은평구	11380	서울특별시 은평구 은평로4길 21	서울특별시 은평구 응암동 118-76	37.597434	126.9170322		녹번119안전센터	N	1993	5	은평소방서	02-6981-6044	2025-04-08
은평-녹번-102035	2	서울특별시	은평구	11380	서울특별시 은평구 은평로 107 서울다조은치과원	서울특별시 은평구 응암동 90-13 서울다조은치과원	37.600208	126.919486	서울다조은치과원	녹번119안전센터	N	1993	5	은평소방서	02-6981-6044	2025-04-08
은평-현장-209046	2	서울특별시	은평구	11380	서울특별시 은평구 연서로34길 23-15 수정연립	서울특별시 은평구 불광동 143-6 수정연립	37.621924	126.928632	수정연립	현장대응단	N	1994	5	은평소방서	02-6981-6044	2025-04-08
은평-녹번-102004	2	서울특별시	은평구	11380	서울특별시 은평구 응암로34길 29 뉴캐슬	서울특별시 은평구 응암동 195-64 뉴캐슬	37.597159	126.923861	뉴캐슬	녹번119안전센터	N	1986	5	은평소방서	02-6981-6044	2025-04-08
은평-녹번-102005	2	서울특별시	은평구	11380	서울특별시 은평구 응암로 283	서울특별시 은평구 응암동 117-51	37.59698048	126.9195725		녹번119안전센터	N	1986	5	은평소방서	02-6981-6044	2025-04-08
은평-녹번-102006	2	서울특별시	은평구	11380	서울특별시 은평구 백련산로14길 20-6	서울특별시 은평구 응암동 46-1	37.59944629	126.9274567		녹번119안전센터	N	1986	5	은평소방서	02-6981-6044	2025-04-08
은평-녹번-102007	2	서울특별시	은평구	11380	서울특별시 은평구 서오릉로 7 은평세무서	서울특별시 은평구 응암동 84-5 은평세무서	37.601785	126.926811	은평세무서	녹번119안전센터	N	1986	5	은평소방서	02-6981-6044	2025-04-08
은평-녹번-102008	2	서울특별시	은평구	11380	서울특별시 은평구 은평로16길 11 응암교회	서울특별시 은평구 응암동 68-1 응암교회	37.600079	126.929942	응암교회	녹번119안전센터	N	1987	5	은평소방서	02-6981-6044	2025-04-08
은평-녹번-102009	1	서울특별시	은평구	11380	서울특별시 은평구 응암로 340 서원빌딩	서울특별시 은평구 응암동 87-30 서원빌딩	37.60147	126.922516	서원빌딩	녹번119안전센터	N	1987	5	은평소방서	02-6981-6044	2025-04-08
은평-녹번-102010	2	서울특별시	은평구	11380	서울특별시 은평구 은평로16길 37	서울특별시 은평구 응암동 39-242	37.597888	126.929956		녹번119안전센터	N	1988	5	은평소방서	02-6981-6044	2025-04-08
은평-녹번-102011	2	서울특별시	은평구	11380	서울특별시 은평구 은평로16길 25-1	서울특별시 은평구 응암동 39-228	37.598972	126.929511		녹번119안전센터	N	1988	5	은평소방서	02-6981-6044	2025-04-08
은평-녹번-102012	2	서울특별시	은평구	11380	서울특별시 은평구 은평로 98 송원하이본	서울특별시 은평구 응암동 111-1 송원하이본	37.599547	126.918755	송원하이본	녹번119안전센터	N	1988	5	은평소방서	02-6981-6044	2025-04-08
은평-녹번-102013	2	서울특별시	은평구	11380	서울특별시 은평구 은평로9길 5	서울특별시 은평구 응암동 89-18	37.60080368	126.921205		녹번119안전센터	N	1988	5	은평소방서	02-6981-6044	2025-04-08
은평-녹번-102014	2	서울특별시	은평구	11380	서울특별시 은평구 은평로10길 29	서울특별시 은평구 응암동 185-3	37.598419	126.9250129		녹번119안전센터	N	1989	5	은평소방서	02-6981-6044	2025-04-08
은평-녹번-102015	1	서울특별시	은평구	11380	서울특별시 은평구 은평로 158 연세정형외과	서울특별시 은평구 응암동 96-29 연세정형외과	37.600908	126.925146	연세정형외과	녹번119안전센터	N	1989	5	은평소방서	02-6981-6044	2025-04-08
은평-녹번-102016	2	서울특별시	은평구	11380	서울특별시 은평구 응암로14길 1 1001안경콘택트	서울특별시 은평구 응암동 576-45 1001안경콘택트	37.590157	126.917359	1001안경콘택트	녹번119안전센터	N	1989	5	은평소방서	02-6981-6044	2025-04-08
은평-녹번-102017	2	서울특별시	은평구	11380	서울특별시 은평구 백련산로 175 FamilyMart	서울특별시 은평구 응암동 97-1 FamilyMart	37.600509	126.926868	FamilyMart	녹번119안전센터	N	1989	5	은평소방서	02-6981-6044	2025-04-08
은평-녹번-102018	2	서울특별시	은평구	11380	서울특별시 은평구 은평로12길 7-10	서울특별시 은평구 응암동 97-28	37.600295	126.9256813		녹번119안전센터	N	1989	5	은평소방서	02-6981-6044	2025-04-08
은평-현장-209045	2	서울특별시	은평구	11380	서울특별시 은평구 통일로78길 11-8 비스포레	서울특별시 은평구 불광동 323-7 비스포레	37.618278	126.923502	비스포레	현장대응단	N	1994	5	은평소방서	02-6981-6044	2025-04-08
은평-녹번-101162	2	서울특별시	은평구	11380	서울특별시 은평구 서오릉로6가길 1	서울특별시 은평구 녹번동 148-3	37.60637705	126.9242701		녹번119안전센터	N	2011	5	은평소방서	02-6981-6044	2025-04-08
은평-녹번-101163	2	서울특별시	은평구	11380	서울특별시 은평구 녹번로7길 20-15	서울특별시 은평구 녹번동 121-3	37.60738803	126.9291742		녹번119안전센터	N	2011	5	은평소방서	02-6981-6044	2025-04-08
은평-녹번-101164	2	서울특별시	은평구	11380	서울특별시 은평구 녹번로9길 19 GS 25시 앞	서울특별시 은평구 녹번동 120-17 GS 25시 앞	37.607583	126.929461	GS 25시	녹번119안전센터	N	2012	5	은평소방서	02-6981-6044	2025-04-08
은평-녹번-101165	2	서울특별시	은평구	11380	서울특별시 은평구 은평로13길 12	서울특별시 은평구 녹번동 155-17	37.60233961	126.9255219		녹번119안전센터	N	2012	5	은평소방서	02-6981-6044	2025-04-08
은평-녹번-101166	1	서울특별시	은평구	11380	서울특별시 은평구 통일로 630 미드스퀘어	서울특별시 은평구 녹번동 38-2 미드스퀘어	37.603009	126.93516	미드스퀘어	녹번119안전센터	N	2012	5	은평소방서	02-6981-6044	2025-04-08
은평-녹번-101167	2	서울특별시	은평구	11380	서울특별시 은평구 통일로53길 9-23	서울특별시 은평구 녹번동 35-30	37.603283	126.9337795		녹번119안전센터	N	2014	5	은평소방서	02-6981-6044	2025-04-08
은평-녹번-101168	2	서울특별시	은평구	11380	서울특별시 은평구 은평로21길 46 거성리젠시	서울특별시 은평구 녹번동 86-124 거성리젠시	37.603085	126.929319	거성리젠시	녹번119안전센터	N	2014	5	은평소방서	02-6981-6044	2025-04-08
은평-녹번-101169	1	서울특별시	은평구	11380	서울특별시 은평구 통일로 590 대림아파트	서울특별시 은평구 녹번동 276 대림아파트	37.599468	126.936824	대림아파트	녹번119안전센터	N	2017	5	은평소방서	02-6981-6044	2025-04-08
은평-녹번-101170	1	서울특별시	은평구	11380	서울특별시 은평구 은평로 225	서울특별시 은평구 녹번동 245	37.60131425	126.93284		녹번119안전센터	N	2014	5	은평소방서	02-6981-6044	2025-04-08
은평-녹번-101171	2	서울특별시	은평구	11380	서울특별시 은평구 녹번로3가길 19 경인에버빌A동 앞	서울특별시 은평구 녹번동 125-1 경인에버빌A동 앞	37.607052	126.928175	경인에버빌A동	녹번119안전센터	N	2015	5	은평소방서	02-6981-6044	2025-04-08
은평-녹번-101172	2	서울특별시	은평구	11380	서울특별시 은평구 진흥로16길 25	서울특별시 은평구 녹번동 1-85	37.60836442	126.939656		녹번119안전센터	N	2016	5	은평소방서	02-6981-6044	2025-04-08
은평-녹번-101173	1	서울특별시	은평구	11380	서울특별시 은평구 진흥로 18-3 장미공원 입구 보도	서울특별시 은평구 녹번동 1-59 장미공원 입구 보도	37.61035	126.939532	미공원 입구 보도	녹번119안전센터	N	2016	5	은평소방서	02-6981-6044	2025-04-08
은평-녹번-102001	2	서울특별시	은평구	11380	서울특별시 은평구 통일로 575-4	서울특별시 은평구 응암동 34-27	37.598564	126.937308		녹번119안전센터	N	1976	5	은평소방서	02-6981-6044	2025-04-08
은평-녹번-102002	2	서울특별시	은평구	11380	서울특별시 은평구 응암로 322	서울특별시 은평구 응암동 103-12	37.59975816	126.922132		녹번119안전센터	N	1982	5	은평소방서	02-6981-6044	2025-04-08
은평-녹번-102003	2	서울특별시	은평구	11380	서울특별시 은평구 은평로16길 8 한나래마트	서울특별시 은평구 응암동 72-3 한나래마트	37.600506	126.930001	한나래마트	녹번119안전센터	N	1984	5	은평소방서	02-6981-6044	2025-04-08
은평-녹번-101147	1	서울특별시	은평구	11380	서울특별시 은평구 녹번로 55 가비루 앞	서울특별시 은평구 녹번동 109-20 가비루 앞	37.605966	126.930567	가비루	녹번119안전센터	N	2007	5	은평소방서	02-6981-6044	2025-04-08
은평-녹번-101148	1	서울특별시	은평구	11380	서울특별시 은평구 통일로 684 서울혁신파크 정문 좌측 30m	서울특별시 은평구 녹번동 5-29 서울혁신파크 정문 좌측 30m	37.607324	126.932855	서울혁신파크 정문 좌측 30m	녹번119안전센터	N	2007	5	은평소방서	02-6981-6044	2025-04-08
은평-녹번-101149	2	서울특별시	은평구	11380	서울특별시 은평구 은평로9길 24 대경아르체	서울특별시 은평구 녹번동 176-3 대경아르체	37.602195	126.92175	대경아르체	녹번119안전센터	N	2007	5	은평소방서	02-6981-6044	2025-04-08
은평-녹번-101150	2	서울특별시	은평구	11380	서울특별시 은평구 응암로4길 9 승진헤어샵 앞	서울특별시 은평구 응암동 603-103 승진헤어샵 앞	37.58598	126.91643	승진헤어샵	녹번119안전센터	N	2007	5	은평소방서	02-6981-6044	2025-04-08
은평-녹번-101151	2	서울특별시	은평구	11380	서울특별시 은평구 녹번로3가길 4-12	서울특별시 은평구 녹번동 105-51	37.6065077	126.9278748		녹번119안전센터	N	1989	5	은평소방서	02-6981-6044	2025-04-08
은평-녹번-101152	2	서울특별시	은평구	11380	서울특별시 은평구 녹번로1길 13	서울특별시 은평구 녹번동 173	37.6047406	126.9265889		녹번119안전센터	N	1994	5	은평소방서	02-6981-6044	2025-04-08
은평-녹번-101153	2	서울특별시	은평구	11380	서울특별시 은평구 녹번로 29-2 어린이집	서울특별시 은평구 녹번동 100-24 어린이집	37.604804	126.928006	어린이집	녹번119안전센터	N	1995	5	은평소방서	02-6981-6044	2025-04-08
은평-녹번-101154	2	서울특별시	은평구	11380	서울특별시 은평구 녹번로4길 6-1	서울특별시 은평구 녹번동 94-16	37.605269	126.930402		녹번119안전센터	N	1996	5	은평소방서	02-6981-6044	2025-04-08
은평-녹번-101155	1	서울특별시	은평구	11380	서울특별시 은평구 녹번로 11 근린공원 화장실앞(주소N)	서울특별시 은평구 녹번동 82-1 근린공원 화장실앞(주소N)	37.603933	126.927569	근린공원 화장실 앞	녹번119안전센터	N	2008	5	은평소방서	02-6981-6044	2025-04-08
은평-녹번-101156	2	서울특별시	은평구	11380	서울특별시 은평구 진흥로16길 8-2 수풀빌라	서울특별시 은평구 녹번동 1-14 수풀빌라	37.609618	126.939129	수풀빌라	녹번119안전센터	N	2009	5	은평소방서	02-6981-6044	2025-04-08
은평-녹번-101157	2	서울특별시	은평구	11380	서울특별시 은평구 은평로21길 31-18 수정빌라	서울특별시 은평구 녹번동 75-23 수정빌라	37.601802	126.931344	수정빌라	녹번119안전센터	N	2009	5	은평소방서	02-6981-6044	2025-04-08
은평-녹번-101158	2	서울특별시	은평구	11380	서울특별시 은평구 은평로21길 19-2	서울특별시 은평구 녹번동 75-7	37.60198068	126.9318364		녹번119안전센터	N	2009	5	은평소방서	02-6981-6044	2025-04-08
은평-녹번-101159	2	서울특별시	은평구	11380	서울특별시 은평구 응암로 379 서부종합카센타	서울특별시 은평구 녹번동 161-1 서부종합카센타	37.605109	126.922599	서부종합카센타	녹번119안전센터	N	2009	5	은평소방서	02-6981-6044	2025-04-08
은평-녹번-101160	1	서울특별시	은평구	11380	서울특별시 은평구 은평로21가길 31 삼성그린빌라	서울특별시 은평구 녹번동 29-146 삼성그린빌라	37.60459	126.931569	삼성그린빌라	녹번119안전센터	N	2010	5	은평소방서	02-6981-6044	2025-04-08
은평-녹번-101161	1	서울특별시	은평구	11380	서울특별시 은평구 통일로 631 달또롱 앞	서울특별시 은평구 녹번동 35-101 달또롱 앞	37.602923	126.934814	달또롱	녹번119안전센터	N	2011	5	은평소방서	02-6981-6044	2025-04-08
은평-녹번-101132	1	서울특별시	은평구	11380	서울특별시 은평구 진흥로16길 2	서울특별시 은평구 녹번동 2	37.610324	126.939096		녹번119안전센터	N	2001	5	은평소방서	02-6981-6044	2025-04-08
은평-녹번-101133	2	서울특별시	은평구	11380	서울특별시 은평구 은평로 203-10	서울특별시 은평구 녹번동 79-19	37.602037	126.930256		녹번119안전센터	N	2001	5	은평소방서	02-6981-6044	2025-04-08
은평-녹번-101134	2	서울특별시	은평구	11380	서울특별시 은평구 통일로52길 24	서울특별시 은평구 녹번동 21-282	37.602645	126.937369		녹번119안전센터	N	2001	5	은평소방서	02-6981-6044	2025-04-08
은평-녹번-101135	2	서울특별시	은평구	11380	서울특별시 은평구 진흥로16길 7-7	서울특별시 은평구 녹번동 1-67	37.60977146	126.9396282		녹번119안전센터	N	2001	5	은평소방서	02-6981-6044	2025-04-08
은평-녹번-101136	2	서울특별시	은평구	11380	서울특별시 은평구 통일로 625-9	서울특별시 은평구 녹번동 42-33	37.602517	126.9340707		녹번119안전센터	N	2001	5	은평소방서	02-6981-6044	2025-04-08
은평-녹번-101137	2	서울특별시	은평구	11380	서울특별시 은평구 은평로21길 6-22	서울특별시 은평구 녹번동 43-53	37.60241686	126.9335864		녹번119안전센터	N	2001	5	은평소방서	02-6981-6044	2025-04-08
은평-녹번-101138	2	서울특별시	은평구	11380	서울특별시 은평구 녹번로3가길 1	서울특별시 은평구 녹번동 104-25	37.60606344	126.9273252		녹번119안전센터	N	2001	5	은평소방서	02-6981-6044	2025-04-08
은평-녹번-101139	1	서울특별시	은평구	11380	서울특별시 은평구 은평로 245	서울특별시 은평구 녹번동 48-5	37.60110498	126.9351461		녹번119안전센터	N	2001	5	은평소방서	02-6981-6044	2025-04-08
은평-녹번-101140	2	서울특별시	은평구	11380	서울특별시 은평구 서오릉로6길 22-1 그린맨션	서울특별시 은평구 녹번동 150-17 그린맨션	37.606438	126.925358	그린맨션	녹번119안전센터	N	2001	5	은평소방서	02-6981-6044	2025-04-08
은평-녹번-101141	2	서울특별시	은평구	11380	서울특별시 은평구 서오릉로4길 24-12 하오빌	서울특별시 은평구 녹번동 168-30 하오빌	37.605592	126.92654	하오빌	녹번119안전센터	N	2001	5	은평소방서	02-6981-6044	2025-04-08
은평-녹번-101142	1	서울특별시	은평구	11380	서울특별시 은평구 녹번로3가길 15-10 일반가	서울특별시 은평구 녹번동 133-4 일반가	37.607307	126.927288		녹번119안전센터	N	2001	5	은평소방서	02-6981-6044	2025-04-08
은평-녹번-101143	2	서울특별시	은평구	11380	서울특별시 은평구 가좌로7가길 19-45 현대빌라	서울특별시 은평구 응암동 247-137 현대빌라	37.584186	126.92173	현대빌라	녹번119안전센터	N	2003	5	은평소방서	02-6981-6044	2025-04-08
은평-녹번-101144	1	서울특별시	은평구	11380	서울특별시 은평구 서오릉로 63 역촌역사	서울특별시 은평구 녹번동 144-69 역촌역사	37.605788	126.922992	역촌역사	녹번119안전센터	N	2004	5	은평소방서	02-6981-6044	2025-04-08
은평-녹번-101145	2	서울특별시	은평구	11380	서울특별시 은평구 서오릉로6가길 14-1 현재빌라	서울특별시 은평구 녹번동 151-86 현재빌라	37.60602	126.925605	현재빌라	녹번119안전센터	N	2006	5	은평소방서	02-6981-6044	2025-04-08
은평-녹번-101146	1	서울특별시	은평구	11380	서울특별시 은평구 녹번로 68 삼화전자	서울특별시 은평구 녹번동 109-53 삼화전자	37.60674	126.931648	삼화전자	녹번119안전센터	N	2006	5	은평소방서	02-6981-6044	2025-04-08
은평-녹번-101117	2	서울특별시	은평구	11380	서울특별시 은평구 통일로59길 16	서울특별시 은평구 녹번동 29-65	37.60514435	126.932306		녹번119안전센터	N	1997	5	은평소방서	02-6981-6044	2025-04-08
은평-녹번-101118	1	서울특별시	은평구	11380	서울특별시 은평구 진흥로 128 백운장여관앞	서울특별시 은평구 녹번동 141-38 백운장여관앞	37.607466	126.924424	백운장여관	녹번119안전센터	N	1997	5	은평소방서	02-6981-6044	2025-04-08
은평-녹번-101119	1	서울특별시	은평구	11380	서울특별시 은평구 서오릉로 38 백마기사식당	서울특별시 은평구 녹번동 81-32 백마기사식당	37.604213	126.92488	백마기사식당	녹번119안전센터	N	1997	5	은평소방서	02-6981-6044	2025-04-08
은평-녹번-101120	1	서울특별시	은평구	11380	서울특별시 은평구 녹번로 45 굿모닝기룡아파트 옆 보도	서울특별시 은평구 녹번동 96-6 굿모닝기룡아파트 옆 보도	37.605472	126.929397	굿모닝기룡아파트 옆 보도	녹번119안전센터	N	1997	5	은평소방서	02-6981-6044	2025-04-08
은평-녹번-101121	2	서울특별시	은평구	11380	서울특별시 은평구 녹번로7길 10 진명빌라	서울특별시 은평구 녹번동 120-97 진명빌라	37.606658	126.930349	진명빌라	녹번119안전센터	N	1997	5	은평소방서	02-6981-6044	2025-04-08
은평-녹번-101122	2	서울특별시	은평구	11380	서울특별시 은평구 녹번로 73 로얄공인중개사사무소	서울특별시 은평구 녹번동 117-52 로얄공인중개사사무소	37.607031	126.931859	로얄공인중개사	녹번119안전센터	N	1997	5	은평소방서	02-6981-6044	2025-04-08
은평-녹번-101123	2	서울특별시	은평구	11380	서울특별시 은평구 진흥로12길 17-1 로뎀독서실	서울특별시 은평구 녹번동 134-15 로뎀독서실	37.607005	126.926819	로뎀독서실	녹번119안전센터	N	1997	5	은평소방서	02-6981-6044	2025-04-08
은평-녹번-101124	2	서울특별시	은평구	11380	서울특별시 은평구 은평로11길 39	서울특별시 은평구 녹번동 159-1	37.60421583	126.9234185		녹번119안전센터	N	1997	5	은평소방서	02-6981-6044	2025-04-08
은평-녹번-101125	2	서울특별시	은평구	11380	서울특별시 은평구 통일로50길 10	서울특별시 은평구 녹번동 53-86	37.601926	126.936167		녹번119안전센터	N	1998	5	은평소방서	02-6981-6044	2025-04-08
은평-녹번-101126	2	서울특별시	은평구	11380	서울특별시 은평구 서오릉로 64-15 동명홈타운	서울특별시 은평구 녹번동 144-29 동명홈타운	37.606712	126.924187	동명홈타운	녹번119안전센터	N	1998	5	은평소방서	02-6981-6044	2025-04-08
은평-녹번-101127	2	서울특별시	은평구	11380	서울특별시 은평구 진흥로12나길 1-20 한광빌라	서울특별시 은평구 녹번동 142-96 한광빌라	37.607064	126.926332	한광빌라	녹번119안전센터	N	1998	5	은평소방서	02-6981-6044	2025-04-08
은평-녹번-101128	2	서울특별시	은평구	11380	서울특별시 은평구 녹번로7길 30-1 비소16호와 연결	서울특별시 은평구 녹번동 105-27 비소16호와 연결	37.606208	126.928509	비소 16호	녹번119안전센터	N	1998	5	은평소방서	02-6981-6044	2025-04-08
은평-녹번-101129	2	서울특별시	은평구	11380	서울특별시 은평구 은평로21가길 17-4	서울특별시 은평구 녹번동 86-35	37.60472868	126.9302496		녹번119안전센터	N	1998	5	은평소방서	02-6981-6044	2025-04-08
은평-녹번-101130	2	서울특별시	은평구	11380	서울특별시 은평구 통일로52길 30	서울특별시 은평구 녹번동 21-278	37.602228	126.937158		녹번119안전센터	N	1998	5	은평소방서	02-6981-6044	2025-04-08
은평-녹번-101131	2	서울특별시	은평구	11380	서울특별시 은평구 진흥로16길 17 혜명사 앞	서울특별시 은평구 녹번동 1-80 혜명사 앞	37.608994	126.939399	혜명사	녹번119안전센터	N	2001	5	은평소방서	02-6981-6044	2025-04-08
은평-녹번-101101	1	서울특별시	은평구	11380	서울특별시 은평구 은평로 189	서울특별시 은평구 녹번동 200	37.60168291	126.928659		녹번119안전센터	N	1995	5	은평소방서	02-6981-6044	2025-04-08
은평-녹번-101102	1	서울특별시	은평구	11380	서울특별시 은평구 은평로 245 녹번119안전센터	서울특별시 은평구 녹번동 48-5 녹번119안전센터	37.601007	126.934675	녹번119안전센터	녹번119안전센터	N	1996	5	은평소방서	02-6981-6044	2025-04-08
은평-녹번-101103	1	서울특별시	은평구	11380	서울특별시 은평구 통일로 671	서울특별시 은평구 녹번동 27-7	37.606329	126.9332314		녹번119안전센터	N	1996	5	은평소방서	02-6981-6044	2025-04-08
은평-녹번-101104	2	서울특별시	은평구	11380	서울특별시 은평구 통일로59길 10	서울특별시 은평구 녹번동 29-16	37.60542823	126.9329306		녹번119안전센터	N	1996	5	은평소방서	02-6981-6044	2025-04-08
은평-녹번-101105	2	서울특별시	은평구	11380	서울특별시 은평구 진흥로 138-18	서울특별시 은평구 녹번동 141-64	37.60728688	126.9251374		녹번119안전센터	N	1996	5	은평소방서	02-6981-6044	2025-04-08
은평-녹번-101106	2	서울특별시	은평구	11380	서울특별시 은평구 서오릉로6가길 2-9	서울특별시 은평구 녹번동 152-63	37.60590187	126.9245656		녹번119안전센터	N	1996	5	은평소방서	02-6981-6044	2025-04-08
은평-녹번-101107	2	서울특별시	은평구	11380	서울특별시 은평구 통일로 606-6	서울특별시 은평구 녹번동 55-1	37.601111	126.936278		녹번119안전센터	N	1996	5	은평소방서	02-6981-6044	2025-04-08
은평-녹번-101108	2	서울특별시	은평구	11380	서울특별시 은평구 은평로21가길 25	서울특별시 은평구 녹번동 86-95	37.60476476	126.9310867		녹번119안전센터	N	1996	5	은평소방서	02-6981-6044	2025-04-08
은평-녹번-101109	2	서울특별시	은평구	11380	서울특별시 은평구 은평로21가길 15	서울특별시 은평구 녹번동 86-77	37.60430587	126.9299897		녹번119안전센터	N	1996	5	은평소방서	02-6981-6044	2025-04-08
은평-녹번-101110	2	서울특별시	은평구	11380	서울특별시 은평구 은평로10길 17-22	서울특별시 은평구 응암동 100-32	37.598823	126.9249381		녹번119안전센터	N	2014	5	은평소방서	02-6981-6044	2025-04-08
은평-녹번-101111	2	서울특별시	은평구	11380	서울특별시 은평구 은평로11길 20 거성리젠시	서울특별시 은평구 녹번동 157-43 거성리젠시	37.6024	126.923484	거성리젠시	녹번119안전센터	N	1996	5	은평소방서	02-6981-6044	2025-04-08
은평-녹번-101112	2	서울특별시	은평구	11380	서울특별시 은평구 통일로63길 9-3	서울특별시 은평구 녹번동 117-27	37.60770601	126.9310335		녹번119안전센터	N	1997	5	은평소방서	02-6981-6044	2025-04-08
은평-녹번-101113	2	서울특별시	은평구	11380	서울특별시 은평구 은평로21길 34 스카이빌	서울특별시 은평구 녹번동 76-11 스카이빌	37.602605	126.930575	스카이빌	녹번119안전센터	N	1997	5	은평소방서	02-6981-6044	2025-04-08
은평-녹번-101114	2	서울특별시	은평구	11380	서울특별시 은평구 서오릉로6가길 6-10	서울특별시 은평구 녹번동 152-91	37.605852	126.9249812		녹번119안전센터	N	1997	5	은평소방서	02-6981-6044	2025-04-08
은평-녹번-101115	2	서울특별시	은평구	11380	서울특별시 은평구 은평로21길 29	서울특별시 은평구 녹번동 75-32	37.602327	126.9310847		녹번119안전센터	N	1997	5	은평소방서	02-6981-6044	2025-04-08
은평-녹번-101116	2	서울특별시	은평구	11380	서울특별시 은평구 통일로63길 13	서울특별시 은평구 녹번동 118-24	37.607759	126.9304804		녹번119안전센터	N	1997	5	은평소방서	02-6981-6044	2025-04-08
은평-녹번-101085	2	서울특별시	은평구	11380	서울특별시 은평구 가좌로7가길 2	서울특별시 은평구 응암동 731-1	37.58591326	126.919281		녹번119안전센터	N	1995	5	은평소방서	02-6981-6044	2025-04-08
은평-녹번-101086	1	서울특별시	은평구	11380	서울특별시 은평구 진흥로 66	서울특별시 은평구 녹번동 177-3	37.602783	126.9214992		녹번119안전센터	N	1995	5	은평소방서	02-6981-6044	2025-04-08
은평-녹번-101087	1	서울특별시	은평구	11380	서울특별시 은평구 은평로9길 15 서부경찰서	서울특별시 은평구 녹번동 177-15 서부경찰서	37.601802	126.920853	서부경찰서	녹번119안전센터	N	1995	5	은평소방서	02-6981-6044	2025-04-08
은평-녹번-101088	2	서울특별시	은평구	11380	서울특별시 은평구 가좌로7라길 5-1	서울특별시 은평구 응암동 696-8	37.585551	126.916936		녹번119안전센터	N	1995	5	은평소방서	02-6981-6044	2025-04-08
은평-녹번-101089	2	서울특별시	은평구	11380	서울특별시 은평구 응암로21길 22-1 다보빌딩	서울특별시 은평구 응암동 126-39 다보빌딩	37.594267	126.915518	다보빌딩	녹번119안전센터	N	1995	5	은평소방서	02-6981-6044	2025-04-08
은평-녹번-101090	1	서울특별시	은평구	11380	서울특별시 은평구 녹번로 7 대성각	서울특별시 은평구 녹번동 82-20 대성각	37.602946	126.926774	대성각	녹번119안전센터	N	1995	5	은평소방서	02-6981-6044	2025-04-08
은평-녹번-101091	2	서울특별시	은평구	11380	서울특별시 은평구 녹번로1길 19	서울특별시 은평구 녹번동 171-1	37.60522078	126.926951		녹번119안전센터	N	1995	5	은평소방서	02-6981-6044	2025-04-08
은평-녹번-101092	1	서울특별시	은평구	11380	서울특별시 은평구 녹번로4길 2 성우인테리어 앞	서울특별시 은평구 녹번동 94-2 성우인테리어 앞	37.605625	126.930067	성우인테리어	녹번119안전센터	N	1995	5	은평소방서	02-6981-6044	2025-04-08
은평-녹번-101093	2	서울특별시	은평구	11380	서울특별시 은평구 통일로57길 12	서울특별시 은평구 녹번동 29-113	37.60451931	126.933407		녹번119안전센터	N	1995	5	은평소방서	02-6981-6044	2025-04-08
은평-녹번-101094	1	서울특별시	은평구	11380	서울특별시 은평구 통일로 643	서울특별시 은평구 녹번동 34-2	37.60422082	126.9345499		녹번119안전센터	N	1995	5	은평소방서	02-6981-6044	2025-04-08
은평-녹번-101095	2	서울특별시	은평구	11380	서울특별시 은평구 은평로13길 27	서울특별시 은평구 녹번동 158-8	37.60339319	126.9241872		녹번119안전센터	N	1995	5	은평소방서	02-6981-6044	2025-04-08
은평-녹번-101096	2	서울특별시	은평구	11380	서울특별시 은평구 진흥로12길 14	서울특별시 은평구 녹번동 139-13	37.607513	126.926679		녹번119안전센터	N	1995	5	은평소방서	02-6981-6044	2025-04-08
은평-녹번-101097	2	서울특별시	은평구	11380	서울특별시 은평구 진흥로12길 3	서울특별시 은평구 녹번동 131-49	37.608419	126.9266913		녹번119안전센터	N	1995	5	은평소방서	02-6981-6044	2025-04-08
은평-녹번-101098	1	서울특별시	은평구	11380	서울특별시 은평구 응암로 343	서울특별시 은평구 녹번동 176-26	37.60173641	126.9221949		녹번119안전센터	N	1995	5	은평소방서	02-6981-6044	2025-04-08
은평-녹번-101099	2	서울특별시	은평구	11380	서울특별시 은평구 은평로12길 18-1	서울특별시 은평구 응암동 100-1	37.599319	126.9251888		녹번119안전센터	N	2014	5	은평소방서	02-6981-6044	2025-04-08
은평-녹번-101100	1	서울특별시	은평구	11380	서울특별시 은평구 서오릉로 6	서울특별시 은평구 녹번동 182	37.60212095	126.9271338		녹번119안전센터	N	1995	5	은평소방서	02-6981-6044	2025-04-08
은평-녹번-101070	1	서울특별시	은평구	11380	서울특별시 은평구 진흥로 120-1 드래곤노래방 앞	서울특별시 은평구 녹번동 144-57 드래곤노래방 앞	37.607072	126.923719	드래곤노래방	녹번119안전센터	N	1994	5	은평소방서	02-6981-6044	2025-04-08
은평-녹번-101071	1	서울특별시	은평구	11380	서울특별시 은평구 진흥로 136	서울특별시 은평구 녹번동 141-57	37.60773343	126.9253049		녹번119안전센터	N	1994	5	은평소방서	02-6981-6044	2025-04-08
은평-녹번-101072	1	서울특별시	은평구	11380	서울특별시 은평구 서오릉로 15 수협	서울특별시 은평구 녹번동 155-42 수협	37.60253	126.926051	수협	녹번119안전센터	N	1991	5	은평소방서	02-6981-6044	2025-04-08
은평-녹번-101073	1	서울특별시	은평구	11380	서울특별시 은평구 서오릉로 29	서울특별시 은평구 녹번동 155-7	37.603474	126.9250678		녹번119안전센터	N	1994	5	은평소방서	02-6981-6044	2025-04-08
은평-녹번-101074	2	서울특별시	은평구	11380	서울특별시 은평구 은평로21길 8	서울특별시 은평구 녹번동 43-8	37.60166865	126.9333819		녹번119안전센터	N	1994	5	은평소방서	02-6981-6044	2025-04-08
은평-녹번-101075	2	서울특별시	은평구	11380	서울특별시 은평구 녹번로3길 16-21 예승빌라	서울특별시 은평구 녹번동 134-12 예승빌라	37.606971	126.927142	예승빌라	녹번119안전센터	N	1994	5	은평소방서	02-6981-6044	2025-04-08
은평-녹번-101076	2	서울특별시	은평구	11380	서울특별시 은평구 은평로21길 35-1	서울특별시 은평구 녹번동 77-1	37.60256	126.9303623		녹번119안전센터	N	1994	5	은평소방서	02-6981-6044	2025-04-08
은평-녹번-101077	2	서울특별시	은평구	11380	서울특별시 은평구 백련산로 91-14	서울특별시 은평구 응암동 237-26	37.59364421	126.922434		녹번119안전센터	N	2014	5	은평소방서	02-6981-6044	2025-04-08
은평-녹번-101078	2	서울특별시	은평구	11380	서울특별시 은평구 녹번로7길 18-1 이지플아트빌앞	서울특별시 은평구 녹번동 120-39 이지플아트빌앞	37.606779	126.929517	이지플아트빌	녹번119안전센터	N	1994	5	은평소방서	02-6981-6044	2025-04-08
은평-녹번-101079	1	서울특별시	은평구	11380	서울특별시 은평구 진흥로 176 양광교회 어린이도서관 앞	서울특별시 은평구 녹번동 129-1 양광교회 어린이도서관 앞	37.60829	126.928678	양광교회 어린이도서관	녹번119안전센터	N	1994	5	은평소방서	02-6981-6044	2025-04-08
은평-녹번-101080	2	서울특별시	은평구	11380	서울특별시 은평구 진흥로12가길 8-9 삼우렉스빌	서울특별시 은평구 녹번동 132-38 삼우렉스빌	37.607775	126.927833	삼우렉스빌	녹번119안전센터	N	1994	5	은평소방서	02-6981-6044	2025-04-08
은평-녹번-101081	2	서울특별시	은평구	11380	서울특별시 은평구 진흥로12가길 8-1 머리하는날앞	서울특별시 은평구 녹번동 131-38 머리하는날앞	37.60808	126.92749	머리하는날	녹번119안전센터	N	1994	5	은평소방서	02-6981-6044	2025-04-08
은평-녹번-101082	2	서울특별시	은평구	11380	서울특별시 은평구 가좌로7가길 25-35 일반가	서울특별시 은평구 응암동 755-22 일반가	37.584194	126.920946		녹번119안전센터	N	1994	5	은평소방서	02-6981-6044	2025-04-08
은평-녹번-101083	1	서울특별시	은평구	11380	서울특별시 은평구 진흥로 84-1	서울특별시 은평구 녹번동 162-2	37.604271	126.9222229		녹번119안전센터	N	1995	5	은평소방서	02-6981-6044	2025-04-08
은평-녹번-101084	1	서울특별시	은평구	11380	서울특별시 은평구 진흥로 76-1 녹번동리치빌	서울특별시 은평구 녹번동 162-30 녹번동리치빌	37.603345	126.92164	녹번동리치빌	녹번119안전센터	N	1995	5	은평소방서	02-6981-6044	2025-04-08
은평-녹번-101055	2	서울특별시	은평구	11380	서울특별시 은평구 은평로13길 20 에덴하우스	서울특별시 은평구 녹번동 155-10 에덴하우스	37.602689	126.925003	에덴하우스	녹번119안전센터	N	1993	5	은평소방서	02-6981-6044	2025-04-08
은평-녹번-101056	2	서울특별시	은평구	11380	서울특별시 은평구 은평로11길 23 리치에비뉴3 앞	서울특별시 은평구 녹번동 160-1 리치에비뉴3 앞	37.60294	126.923387	리치에비뉴3	녹번119안전센터	N	1993	5	은평소방서	02-6981-6044	2025-04-08
은평-녹번-101057	2	서울특별시	은평구	11380	서울특별시 은평구 서오릉로4길 7 성암교회정문앞	서울특별시 은평구 녹번동 152-41 성암교회정문앞	37.604625	126.925341	성암교회정문	녹번119안전센터	N	1993	5	은평소방서	02-6981-6044	2025-04-08
은평-녹번-101058	1	서울특별시	은평구	11380	서울특별시 은평구 응암로 356 한국담배인삼공사서울영업본부서부지점	서울특별시 은평구 녹번동 160-3 한국담배인삼공사서울영업본부서부지점	37.602776	126.922633	한국담배인삼공사서울영업본부서부지점	녹번119안전센터	N	1993	5	은평소방서	02-6981-6044	2025-04-08
은평-녹번-101059	1	서울특별시	은평구	11380	서울특별시 은평구 서오릉로 58 서울고시텔	서울특별시 은평구 녹번동 80-9 서울고시텔	37.605803	126.923468	서울고시텔	녹번119안전센터	N	1993	5	은평소방서	02-6981-6044	2025-04-08
은평-녹번-101060	1	서울특별시	은평구	11380	서울특별시 은평구 진흥로 112	서울특별시 은평구 녹번동 144-1	37.60650365	126.9233091		녹번119안전센터	N	1993	5	은평소방서	02-6981-6044	2025-04-08
은평-녹번-101061	2	서울특별시	은평구	11380	서울특별시 은평구 서오릉로4길 19	서울특별시 은평구 녹번동 151-4	37.60581816	126.9259644		녹번119안전센터	N	1993	5	은평소방서	02-6981-6044	2025-04-08
은평-녹번-101062	1	서울특별시	은평구	11380	서울특별시 은평구 서오릉로 47	서울특별시 은평구 녹번동 153-1	37.60514883	126.9230416		녹번119안전센터	N	1993	5	은평소방서	02-6981-6044	2025-04-08
은평-녹번-101063	1	서울특별시	은평구	11380	서울특별시 은평구 진흥로 144 동호스카이아파트	서울특별시 은평구 녹번동 141-5 동호스카이아파트	37.608152	126.925927	동호스카이아파트	녹번119안전센터	N	1993	5	은평소방서	02-6981-6044	2025-04-08
은평-녹번-101064	2	서울특별시	은평구	11380	서울특별시 은평구 진흥로12나길 8 현대렉스빌	서울특별시 은평구 녹번동 140-4 현대렉스빌	37.607585	126.926117	현대렉스빌	녹번119안전센터	N	1993	5	은평소방서	02-6981-6044	2025-04-08
은평-녹번-101065	1	서울특별시	은평구	11380	서울특별시 은평구 진흥로 196 파리바게트 앞	서울특별시 은평구 녹번동 117-111 파리바게트 앞	37.608449	126.931425	파리바게트	녹번119안전센터	N	1994	5	은평소방서	02-6981-6044	2025-04-08
은평-녹번-101066	1	서울특별시	은평구	11380	서울특별시 은평구 진흥로 160	서울특별시 은평구 녹번동 131-6	37.608732	126.9274367		녹번119안전센터	N	1994	5	은평소방서	02-6981-6044	2025-04-08
은평-녹번-101067	2	서울특별시	은평구	11380	서울특별시 은평구 녹번로7길 17-9 예담빌	서울특별시 은평구 녹번동 95-2 예담빌	37.606114	126.92947	예담빌	녹번119안전센터	N	1994	5	은평소방서	02-6981-6044	2025-04-08
은평-녹번-101068	1	서울특별시	은평구	11380	서울특별시 은평구 서오릉로 30 예음피아노	서울특별시 은평구 녹번동 81-17 예음피아노	37.603685	126.925348	예음피아노	녹번119안전센터	N	1994	5	은평소방서	02-6981-6044	2025-04-08
은평-녹번-101069	2	서울특별시	은평구	11380	서울특별시 은평구 은평로 215-1	서울특별시 은평구 녹번동 217	37.60151247	126.9317341		녹번119안전센터	N	1994	5	은평소방서	02-6981-6044	2025-04-08
은평-녹번-101040	2	서울특별시	은평구	11380	서울특별시 은평구 녹번로 6-25 양지베르빌	서울특별시 은평구 녹번동 83-48 양지베르빌	37.602781	126.928169	양지베르빌	녹번119안전센터	N	1993	5	은평소방서	02-6981-6044	2025-04-08
은평-녹번-101041	2	서울특별시	은평구	11380	서울특별시 은평구 은평로21길 31	서울특별시 은평구 녹번동 75-2	37.60240375	126.930838		녹번119안전센터	N	1993	5	은평소방서	02-6981-6044	2025-04-08
은평-녹번-101042	2	서울특별시	은평구	11380	서울특별시 은평구 진흥로12가길 20 알부자 부동산 앞	서울특별시 은평구 녹번동 126-2 알부자 부동산 앞	37.60779	126.928993	알부자 부동산	녹번119안전센터	N	1993	5	은평소방서	02-6981-6044	2025-04-08
은평-녹번-101043	1	서울특별시	은평구	11380	서울특별시 은평구 통일로 581	서울특별시 은평구 응암동 31-4	37.598701	126.9370841		녹번119안전센터	N	1993	5	은평소방서	02-6981-6044	2025-04-08
은평-녹번-101044	1	서울특별시	은평구	11380	서울특별시 은평구 응암로 161 바닐라PC 나라 앞 인도	서울특별시 은평구 응암동 594-2 바닐라PC 나라 앞 인도	37.586442	126.915908	바닐라PC나라	녹번119안전센터	N	1993	5	은평소방서	02-6981-6044	2025-04-08
은평-녹번-101045	1	서울특별시	은평구	11380	서울특별시 은평구 통일로 596	서울특별시 은평구 녹번동 61-6	37.60013515	126.936457		녹번119안전센터	N	2021	5	은평소방서	02-6981-6044	2025-04-08
은평-녹번-101046	1	서울특별시	은평구	11380	서울특별시 은평구 통일로 683 주천호프타운	서울특별시 은평구 녹번동 117-13 주천호프타운	37.607076	126.932648	주천호프타운	녹번119안전센터	N	1993	5	은평소방서	02-6981-6044	2025-04-08
은평-녹번-101047	2	서울특별시	은평구	11380	서울특별시 은평구 서오릉로6가길 6 샹그리라	서울특별시 은평구 녹번동 152-88 샹그리라	37.606282	126.924674	샹그리라	녹번119안전센터	N	1993	5	은평소방서	02-6981-6044	2025-04-08
은평-녹번-101048	2	서울특별시	은평구	11380	서울특별시 은평구 녹번로6길 2 라임하우스	서울특별시 은평구 녹번동 29-137 라임하우스	37.606053	126.931317	라임하우스	녹번119안전센터	N	1993	5	은평소방서	02-6981-6044	2025-04-08
은평-녹번-101049	2	서울특별시	은평구	11380	서울특별시 은평구 진흥로12가길 8-43	서울특별시 은평구 녹번동 131-19	37.60750997	126.928164		녹번119안전센터	N	1993	5	은평소방서	02-6981-6044	2025-04-08
은평-녹번-101050	2	서울특별시	은평구	11380	서울특별시 은평구 통일로 641	서울특별시 은평구 녹번동 35-1	37.60402071	126.9345424		녹번119안전센터	N	1993	5	은평소방서	02-6981-6044	2025-04-08
은평-녹번-101051	2	서울특별시	은평구	11380	서울특별시 은평구 응암로9길 17 평강교회	서울특별시 은평구 응암동 595-43 평강교회	37.58755	126.914319	평강교회	녹번119안전센터	N	1993	5	은평소방서	02-6981-6044	2025-04-08
은평-녹번-101052	1	서울특별시	은평구	11380	서울특별시 은평구 서오릉로 41 유공주유소	서울특별시 은평구 녹번동 154-1 유공주유소	37.604401	126.924345	유공주유소	녹번119안전센터	N	1993	5	은평소방서	02-6981-6044	2025-04-08
은평-녹번-101053	2	서울특별시	은평구	11380	서울특별시 은평구 서오릉로6길 27	서울특별시 은평구 녹번동 142-87	37.60653577	126.9259236		녹번119안전센터	N	1993	5	은평소방서	02-6981-6044	2025-04-08
은평-녹번-101054	2	서울특별시	은평구	11380	서울특별시 은평구 통일로61길 5	서울특별시 은평구 녹번동 112	37.60658416	126.932559		녹번119안전센터	N	1993	5	은평소방서	02-6981-6044	2025-04-08
은평-녹번-101019	1	서울특별시	은평구	11380	서울특별시 은평구 응암로 366 해주 드림빌	서울특별시 은평구 녹번동 279-1 해주 드림빌	37.604214	126.922781	해주 드림빌	녹번119안전센터	N	1988	5	은평소방서	02-6981-6044	2025-04-08
은평-녹번-101020	2	서울특별시	은평구	11380	서울특별시 은평구 서오릉로 22	서울특별시 은평구 녹번동 82-43	37.60323114	126.9262521		녹번119안전센터	N	1988	5	은평소방서	02-6981-6044	2025-04-08
은평-녹번-101022	2	서울특별시	은평구	11380	서울특별시 은평구 녹번로6길 4	서울특별시 은평구 녹번동 29-31	37.60590759	126.9315824		녹번119안전센터	N	1989	5	은평소방서	02-6981-6044	2025-04-08
은평-녹번-101023	2	서울특별시	은평구	11380	서울특별시 은평구 진흥로12나길 4	서울특별시 은평구 녹번동 141-72	37.60806747	126.9263853		녹번119안전센터	N	1989	5	은평소방서	02-6981-6044	2025-04-08
은평-녹번-101024	2	서울특별시	은평구	11380	서울특별시 은평구 녹번로3가길 12	서울특별시 은평구 녹번동 133-13	37.606804	126.9277815		녹번119안전센터	N	1989	5	은평소방서	02-6981-6044	2025-04-08
은평-녹번-101025	2	서울특별시	은평구	11380	서울특별시 은평구 서오릉로2길 11	서울특별시 은평구 녹번동 83-46	37.60240513	126.9280219		녹번119안전센터	N	1989	5	은평소방서	02-6981-6044	2025-04-08
은평-녹번-101026	2	서울특별시	은평구	11380	서울특별시 은평구 녹번로6길 12	서울특별시 은평구 녹번동 29-37	37.60560527	126.9321341		녹번119안전센터	N	1989	5	은평소방서	02-6981-6044	2025-04-08
은평-녹번-101030	2	서울특별시	은평구	11380	서울특별시 은평구 녹번로 35	서울특별시 은평구 녹번동 98-47	37.605296	126.928571		녹번119안전센터	N	1990	5	은평소방서	02-6981-6044	2025-04-08
은평-녹번-101031	1	서울특별시	은평구	11380	서울특별시 은평구 통일로 642 미드스퀘어	서울특별시 은평구 녹번동 19-38 미드스퀘어	37.60368	126.935054	미드스퀘어	녹번119안전센터	N	1990	5	은평소방서	02-6981-6044	2025-04-08
은평-녹번-101033	2	서울특별시	은평구	11380	서울특별시 은평구 통일로 697 스시정	서울특별시 은평구 녹번동 117-112 스시정	37.607941	126.931823	스시정	녹번119안전센터	N	1991	5	은평소방서	02-6981-6044	2025-04-08
은평-녹번-101034	1	서울특별시	은평구	11380	서울특별시 은평구 진흥로 186 탐스비어 앞	서울특별시 은평구 녹번동 118-34 탐스비어 앞	37.608239	126.930201	탐스비어	녹번119안전센터	N	1991	5	은평소방서	02-6981-6044	2025-04-08
은평-녹번-101035	2	서울특별시	은평구	11380	서울특별시 은평구 은평로21길 14-1	서울특별시 은평구 녹번동 76-3	37.60192	126.9327831		녹번119안전센터	N	1991	5	은평소방서	02-6981-6044	2025-04-08
은평-녹번-101036	2	서울특별시	은평구	11380	서울특별시 은평구 통일로57길 8 장미주택	서울특별시 은평구 녹번동 29-2 장미주택	37.604579	126.933914	장미주택	녹번119안전센터	N	1992	5	은평소방서	02-6981-6044	2025-04-08
은평-녹번-101037	2	서울특별시	은평구	11380	서울특별시 은평구 서오릉로 64-6 대지빌라앞	서울특별시 은평구 녹번동 144-47 대지빌라앞	37.60638	126.923629	대지빌라	녹번119안전센터	N	1992	5	은평소방서	02-6981-6044	2025-04-08
은평-녹번-101038	2	서울특별시	은평구	11380	서울특별시 은평구 통일로53길 12	서울특별시 은평구 녹번동 35-24	37.60391426	126.933503		녹번119안전센터	N	1993	5	은평소방서	02-6981-6044	2025-04-08
은평-녹번-101039	2	서울특별시	은평구	11380	서울특별시 은평구 녹번로3길 10-1	서울특별시 은평구 녹번동 104-37	37.60593953	126.927809		녹번119안전센터	N	1993	5	은평소방서	02-6981-6044	2025-04-08
은평-녹번-101002	2	서울특별시	은평구	11380	서울특별시 은평구 은평로 245 녹번119안전센터	서울특별시 은평구 녹번동 48-5 녹번119안전센터	37.60095	126.934732	녹번119안전센터	녹번119안전센터	N	1976	5	은평소방서	02-6981-6044	2025-04-08
은평-녹번-101003	1	서울특별시	은평구	11380	서울특별시 은평구 통일로 625 키움부동산	서울특별시 은평구 녹번동 42-24 키움부동산	37.602542	126.934872	키움부동산	녹번119안전센터	N	1976	5	은평소방서	02-6981-6044	2025-04-08
은평-녹번-101004	1	서울특별시	은평구	11380	서울특별시 은평구 통일로53길 9-13	서울특별시 은평구 녹번동 35-54	37.60353372	126.9343859		녹번119안전센터	N	1977	5	은평소방서	02-6981-6044	2025-04-08
은평-녹번-101005	1	서울특별시	은평구	11380	서울특별시 은평구 통일로 684 서울혁신파크 양천리 비석	서울특별시 은평구 녹번동 7 서울혁신파크 양천리 비석	37.608914	126.934387	서울혁신파크 양천리 비석	녹번119안전센터	N	1979	5	은평소방서	02-6981-6044	2025-04-08
은평-녹번-101006	1	서울특별시	은평구	11380	서울특별시 은평구 은평로 205-1 녹번동천주교회	서울특별시 은평구 녹번동 73-14 녹번동천주교회	37.601364	126.930609	녹번동천주교회	녹번119안전센터	N	1982	5	은평소방서	02-6981-6044	2025-04-08
은평-녹번-101007	2	서울특별시	은평구	11380	서울특별시 은평구 통일로 580-2	서울특별시 은평구 녹번동 71-38	37.59887918	126.9378322		녹번119안전센터	N	1986	5	은평소방서	02-6981-6044	2025-04-08
은평-녹번-101008	1	서울특별시	은평구	11380	서울특별시 은평구 통일로 659 한국전력공사 서대문은평지사	서울특별시 은평구 녹번동 28-62 한국전력공사 서대문은평지사	37.605367	126.934134	한국전력공사 서대문은평지사	녹번119안전센터	N	1986	5	은평소방서	02-6981-6044	2025-04-08
은평-녹번-101009	2	서울특별시	은평구	11380	서울특별시 은평구 녹번로 11 서울새교회	서울특별시 은평구 녹번동 82-1 서울새교회	37.603375	126.927017	서울새교회	녹번119안전센터	N	1986	5	은평소방서	02-6981-6044	2025-04-08
은평-녹번-101012	2	서울특별시	은평구	11380	서울특별시 은평구 녹번로9길 8	서울특별시 은평구 녹번동 118-11	37.6072113	126.930985		녹번119안전센터	N	1988	5	은평소방서	02-6981-6044	2025-04-08
은평-녹번-101013	2	서울특별시	은평구	11380	서울특별시 은평구 서오릉로2길 3	서울특별시 은평구 녹번동 83-25	37.60256836	126.927089		녹번119안전센터	N	1988	5	은평소방서	02-6981-6044	2025-04-08
은평-녹번-101014	2	서울특별시	은평구	11380	서울특별시 은평구 서오릉로4길 25	서울특별시 은평구 녹번동 151-7	37.60625	126.9262547		녹번119안전센터	N	1988	5	은평소방서	02-6981-6044	2025-04-08
은평-녹번-101015	2	서울특별시	은평구	11380	서울특별시 은평구 녹번로7길 14 뉴펠리스	서울특별시 은평구 녹번동 120-90 뉴펠리스	37.606674	126.929877	뉴펠리스	녹번119안전센터	N	1988	5	은평소방서	02-6981-6044	2025-04-08
은평-녹번-101016	2	서울특별시	은평구	11380	서울특별시 은평구 녹번로9길 16 황싸롱 미용실 앞	서울특별시 은평구 녹번동 118-41 황싸롱 미용실 앞	37.607297	126.930204	황싸롱 미용실	녹번119안전센터	N	1988	5	은평소방서	02-6981-6044	2025-04-08
은평-녹번-101017	2	서울특별시	은평구	11380	서울특별시 은평구 은평로11길 12-15	서울특별시 은평구 녹번동 156-27	37.6020485	126.9241059		녹번119안전센터	N	1988	5	은평소방서	02-6981-6044	2025-04-08
은평-녹번-101018	1	서울특별시	은평구	11380	서울특별시 은평구 응암로 357	서울특별시 은평구 녹번동 162-42	37.6031213	126.922294		녹번119안전센터	N	1988	5	은평소방서	02-6981-6044	2025-04-08
은평-역촌-315066	1	서울특별시	은평구	11380	서울특별시 은평구 갈현로7길 29	서울특별시 은평구 역촌동 218	37.6045478	126.9072728		역촌119안전센터	N	1997	5	은평소방서	02-6981-6044	2025-04-08
은평-역촌-315067	2	서울특별시	은평구	11380	서울특별시 은평구 연서로5길 10-1 신일아트빌	서울특별시 은평구 역촌동 61-11 신일아트빌	37.603983	126.914211	신일아트빌	역촌119안전센터	N	1998	5	은평소방서	02-6981-6044	2025-04-08
은평-역촌-315068	2	서울특별시	은평구	11380	서울특별시 은평구 연서로3나길 11 건우주택	서울특별시 은평구 역촌동 68-1 건우주택	37.603293	126.912966	건우주택	역촌119안전센터	N	1998	5	은평소방서	02-6981-6044	2025-04-08
은평-역촌-315069	2	서울특별시	은평구	11380	서울특별시 은평구 갈현로11길 6-3	서울특별시 은평구 역촌동 53-4	37.60563477	126.9096173		역촌119안전센터	N	2000	5	은평소방서	02-6981-6044	2025-04-08
은평-역촌-315070	2	서울특별시	은평구	11380	서울특별시 은평구 갈현로7길 43	서울특별시 은평구 역촌동 226-2	37.60441919	126.9058618		역촌119안전센터	N	2000	5	은평소방서	02-6981-6044	2025-04-08
은평-역촌-315071	1	서울특별시	은평구	11380	서울특별시 은평구 연서로3길 31 브라운스톤빌	서울특별시 은평구 역촌동 80-8 브라운스톤빌	37.60245	126.912215	브라운스톤빌	역촌119안전센터	N	2001	5	은평소방서	02-6981-6044	2025-04-08
은평-역촌-315072	2	서울특별시	은평구	11380	서울특별시 은평구 갈현로12길 23 솔빛아파트	서울특별시 은평구 역촌동 47-31 솔빛아파트	37.606347	126.91349	솔빛아파트	역촌119안전센터	N	2001	5	은평소방서	02-6981-6044	2025-04-08
은평-역촌-315073	2	서울특별시	은평구	11380	서울특별시 은평구 역말로4길 12-15	서울특별시 은평구 역촌동 58-19	37.604368	126.912005		역촌119안전센터	N	2003	5	은평소방서	02-6981-6044	2025-04-08
은평-역촌-315074	2	서울특별시	은평구	11380	서울특별시 은평구 연서로9길 7 고대상사(식자재) 앞 차도	서울특별시 은평구 역촌동 46-2 고대상사(식자재) 앞 차도	37.60735	126.91414	고대상사 앞 차도	역촌119안전센터	N	2003	5	은평소방서	02-6981-6044	2025-04-08
은평-역촌-315075	2	서울특별시	은평구	11380	서울특별시 은평구 갈현로 89 알뜰폰할인매장 옆	서울특별시 은평구 역촌동 52-25 알뜰폰할인매장 옆	37.605925	126.910432	알뜰폰할인매장 옆	역촌119안전센터	N	2004	5	은평소방서	02-6981-6044	2025-04-08
은평-역촌-315076	1	서울특별시	은평구	11380	서울특별시 은평구 갈현로7가길 4	서울특별시 은평구 역촌동 75-21	37.60354653	126.9088908		역촌119안전센터	N	2004	5	은평소방서	02-6981-6044	2025-04-08
은평-역촌-315077	1	서울특별시	은평구	11380	서울특별시 은평구 역말로 28 만민라이프아파트B동 앞 인도	서울특별시 은평구 역촌동 59-15 만민라이프아파트B동 앞 인도	37.605564	126.913445	만민라이프아파트B동 앞 인도	역촌119안전센터	N	2004	5	은평소방서	02-6981-6044	2025-04-08
은평-역촌-315078	2	서울특별시	은평구	11380	서울특별시 은평구 갈현로14길 24-1 임창에버빌	서울특별시 은평구 역촌동 47-20 임창에버빌	37.606835	126.913469	임창에버빌	역촌119안전센터	N	2004	5	은평소방서	02-6981-6044	2025-04-08
은평-역촌-315079	2	서울특별시	은평구	11380	서울특별시 은평구 연서로8길 13	서울특별시 은평구 역촌동 11-46	37.60693932	126.9168558		역촌119안전센터	N	2004	5	은평소방서	02-6981-6044	2025-04-08
은평-역촌-315080	2	서울특별시	은평구	11380	서울특별시 은평구 갈현로 47	서울특별시 은평구 역촌동 78-33	37.60209224	126.910179		역촌119안전센터	N	2005	5	은평소방서	02-6981-6044	2025-04-08
은평-역촌-315051	1	서울특별시	은평구	11380	서울특별시 은평구 연서로 1 리더스파크 앞(신사동방향 쪽)	서울특별시 은평구 역촌동 85-41 리더스파크 앞(신사동방향 쪽)	37.598983	126.915154	리더스파크 앞	역촌119안전센터	있음	1995	5	은평소방서	02-6981-6044	2025-04-08
은평-역촌-315052	1	서울특별시	은평구	11380	서울특별시 은평구 갈현로 99 고향식당 앞 인도	서울특별시 은평구 역촌동 52-14 고향식당 앞 인도	37.60669	126.910596	고향식당 앞 인도	역촌119안전센터	N	1995	5	은평소방서	02-6981-6044	2025-04-08
은평-역촌-315053	2	서울특별시	은평구	11380	서울특별시 은평구 갈현로15길 7-29	서울특별시 은평구 역촌동 52-38	37.60633774	126.9098821		역촌119안전센터	N	1995	5	은평소방서	02-6981-6044	2025-04-08
은평-역촌-급315054	3	서울특별시	은평구	11380	서울특별시 은평구 갈현로 82 역촌 제일프라자	서울특별시 은평구 역촌동 55-35 역촌 제일프라자	37.605042	126.910543	역촌 제일프라자	역촌119안전센터	N	1996	5	은평소방서	02-6981-6044	2025-04-08
은평-역촌-315055	2	서울특별시	은평구	11380	서울특별시 은평구 연서로3가길 13-10	서울특별시 은평구 역촌동 64-58	37.60353699	126.91435		역촌119안전센터	N	1996	5	은평소방서	02-6981-6044	2025-04-08
은평-역촌-315056	2	서울특별시	은평구	11380	서울특별시 은평구 은평로3길 13 향연한정식	서울특별시 은평구 역촌동 84-26 향연한정식	37.599987	126.914912	향연한정식	역촌119안전센터	N	1996	5	은평소방서	02-6981-6044	2025-04-08
은평-역촌-315057	2	서울특별시	은평구	11380	서울특별시 은평구 갈현로4길 5	서울특별시 은평구 역촌동 79-48	37.60185527	126.911091		역촌119안전센터	N	1996	5	은평소방서	02-6981-6044	2025-04-08
은평-역촌-315058	2	서울특별시	은평구	11380	서울특별시 은평구 갈현로9길 5-15	서울특별시 은평구 역촌동 70-38	37.604205	126.9098603		역촌119안전센터	N	1996	5	은평소방서	02-6981-6044	2025-04-08
은평-역촌-315059	1	서울특별시	은평구	11380	서울특별시 은평구 연서로 73 신한은행 옆 (인도)	서울특별시 은평구 역촌동 62-1 신한은행 옆 (인도)	37.605675	126.915041	신한은행 옆	역촌119안전센터	N	1996	5	은평소방서	02-6981-6044	2025-04-08
은평-역촌-315060	1	서울특별시	은평구	11380	서울특별시 은평구 갈현로 80 역촌119안전센터	서울특별시 은평구 역촌동 55-37 역촌119안전센터	37.604979	126.910583	역촌119안전센터	역촌119안전센터	N	1996	5	은평소방서	02-6981-6044	2025-04-08
은평-역촌-315061	2	서울특별시	은평구	11380	서울특별시 은평구 갈현로7가길 11	서울특별시 은평구 역촌동 191-2	37.60280131	126.9091135		역촌119안전센터	N	1996	5	은평소방서	02-6981-6044	2025-04-08
은평-역촌-315062	2	서울특별시	은평구	11380	서울특별시 은평구 갈현로4길 31	서울특별시 은평구 역촌동 84-51	37.600902	126.9138216		역촌119안전센터	N	1997	5	은평소방서	02-6981-6044	2025-04-08
은평-역촌-315063	2	서울특별시	은평구	11380	서울특별시 은평구 연서로3나길 8-1 재연주택	서울특별시 은평구 역촌동 65-33 재연주택	37.602833	126.913059	재연주택	역촌119안전센터	N	1997	5	은평소방서	02-6981-6044	2025-04-08
은평-역촌-315064	2	서울특별시	은평구	11380	서울특별시 은평구 연서로3길 8 with me	서울특별시 은평구 역촌동 66-44 with me	37.602336	126.914826	with me	역촌119안전센터	N	1997	5	은평소방서	02-6981-6044	2025-04-08
은평-역촌-315065	1	서울특별시	은평구	11380	서울특별시 은평구 갈현로7길 4	서울특별시 은평구 역촌동 70-46	37.60358879	126.909927		역촌119안전센터	N	1997	5	은평소방서	02-6981-6044	2025-04-08
은평-역촌-317089	2	서울특별시	은평구	11380	서울특별시 은평구 갈현로33길 41	서울특별시 은평구 갈현동 259-13	37.621803	126.9120857		역촌119안전센터	N	2013	5	은평소방서	02-6981-6044	2025-04-08
은평-역촌-317090	2	서울특별시	은평구	11380	서울특별시 은평구 갈현로 170-4 백은선머리여행	서울특별시 은평구 구산동 213-1 백은선머리여행	37.612806	126.912089	백은선머리여행	역촌119안전센터	N	2013	5	은평소방서	02-6981-6044	2025-04-08
은평-역촌-317091	2	서울특별시	은평구	11380	서울특별시 은평구 갈현로15길 20-18	서울특별시 은평구 구산동 185-1	37.60875825	126.9087011		역촌119안전센터	N	2013	5	은평소방서	02-6981-6044	2025-04-08
은평-역촌-317092	2	서울특별시	은평구	11380	서울특별시 은평구 갈현로15길 40	서울특별시 은평구 구산동 179-2	37.60902544	126.9072675		역촌119안전센터	N	2013	5	은평소방서	02-6981-6044	2025-04-08
은평-역촌-317093	2	서울특별시	은평구	11380	서울특별시 은평구 갈현로15길 27-4 풍성피아오리앙 101동	서울특별시 은평구 구산동 173-1 풍성피아오리앙 101동	37.608311	126.90706	풍성피아오리앙 101동	역촌119안전센터	N	2013	5	은평소방서	02-6981-6044	2025-04-08
은평-역촌-317094	2	서울특별시	은평구	11380	서울특별시 은평구 연서로16길 11-3 현대써니빌	서울특별시 은평구 역촌동 1-24 현대써니빌	37.609567	126.918056	현대써니빌	역촌119안전센터	N	2013	5	은평소방서	02-6981-6044	2025-04-08
은평-역촌-317095	2	서울특별시	은평구	11380	서울특별시 은평구 서오릉로25길 27	서울특별시 은평구 구산동 622-7	37.61635679	126.9040008		역촌119안전센터	N	2014	5	은평소방서	02-6981-6044	2025-04-08
은평-역촌-317096	2	서울특별시	은평구	11380	서울특별시 은평구 서오릉로23길 9-7	서울특별시 은평구 구산동	37.61569582	126.9069163		역촌119안전센터	N	2014	5	은평소방서	02-6981-6044	2025-04-08
은평-역촌-317097	2	서울특별시	은평구	11380	서울특별시 은평구 서오릉로21길 33-6	서울특별시 은평구 구산동	37.61336	126.906894		역촌119안전센터	N	2014	5	은평소방서	02-6981-6044	2025-04-08
은평-역촌-317098	2	서울특별시	은평구	11380	서울특별시 은평구 갈현로14길 18 현대아트빌라	서울특별시 은평구 역촌동 49-33 현대아트빌라	37.606817	126.912684	현대아트빌라	역촌119안전센터	N	2014	5	은평소방서	02-6981-6044	2025-04-08
은평-역촌-317099	2	서울특별시	은평구	11380	서울특별시 은평구 진흥로1라길 16	서울특별시 은평구 역촌동 21-31	37.604801	126.916559		역촌119안전센터	N	2014	5	은평소방서	02-6981-6044	2025-04-08
은평-역촌-317100	2	서울특별시	은평구	11380	서울특별시 은평구 진흥로1가길 2	서울특별시 은평구 역촌동 37-44	37.60216397	126.918544		역촌119안전센터	N	2014	5	은평소방서	02-6981-6044	2025-04-08
은평-역촌-317101	2	서울특별시	은평구	11380	서울특별시 은평구 갈현로17나길 36-2 인욱빌라	서울특별시 은평구 구산동 27-27 인욱빌라	37.608392	126.909842	인욱빌라	역촌119안전센터	N	2016	5	은평소방서	02-6981-6044	2025-04-08
은평-역촌-317073	2	서울특별시	은평구	11380	서울특별시 은평구 갈현로 154-8 에덴어린이집	서울특별시 은평구 구산동 11-6 에덴어린이집	37.61123	126.911848	에덴어린이집	역촌119안전센터	N	2001	5	은평소방서	02-6981-6044	2025-04-08
은평-역촌-317074	2	서울특별시	은평구	11380	서울특별시 은평구 연서로15길 30	서울특별시 은평구 구산동 6-26	37.61154201	126.91386		역촌119안전센터	N	2001	5	은평소방서	02-6981-6044	2025-04-08
은평-역촌-317075	2	서울특별시	은평구	11380	서울특별시 은평구 연서로13길 5-16	서울특별시 은평구 구산동	37.608775	126.91486		역촌119안전센터	N	2001	5	은평소방서	02-6981-6044	2025-04-08
은평-역촌-317077	2	서울특별시	은평구	11380	서울특별시 은평구 갈현로11길 12-13	서울특별시 은평구 구산동 177-66	37.60597564	126.9090614		역촌119안전센터	N	2003	5	은평소방서	02-6981-6044	2025-04-08
은평-역촌-317078	2	서울특별시	은평구	11380	서울특별시 은평구 갈현로11길 10-13	서울특별시 은평구 구산동 177-148	37.60607855	126.909488		역촌119안전센터	N	2003	5	은평소방서	02-6981-6044	2025-04-08
은평-역촌-317079	2	서울특별시	은평구	11380	서울특별시 은평구 서오릉로21길 11-7	서울특별시 은평구 구산동 323-29	37.61502805	126.9080081		역촌119안전센터	N	2006	5	은평소방서	02-6981-6044	2025-04-08
은평-역촌-317080	1	서울특별시	은평구	11380	서울특별시 은평구 갈현로16길 12	서울특별시 은평구 구산동 25-2	37.608051	126.9121048		역촌119안전센터	N	2006	5	은평소방서	02-6981-6044	2025-04-08
은평-역촌-317081	2	서울특별시	은평구	11380	서울특별시 은평구 서오릉로13길 5 행복세탁소 앞	서울특별시 은평구 구산동 220-1 행복세탁소 앞	37.612228	126.913779	행복세탁소 앞	역촌119안전센터	N	2006	5	은평소방서	02-6981-6044	2025-04-08
은평-역촌-317082	2	서울특별시	은평구	11380	서울특별시 은평구 갈현로17가길 5	서울특별시 은평구 구산동 100-7	37.61208855	126.910487		역촌119안전센터	N	2006	5	은평소방서	02-6981-6044	2025-04-08
은평-역촌-317083	1	서울특별시	은평구	11380	서울특별시 은평구 갈현로11가길 7-9	서울특별시 은평구 구산동 177-102	37.605716	126.907895		역촌119안전센터	N	2007	5	은평소방서	02-6981-6044	2025-04-08
은평-역촌-317084	1	서울특별시	은평구	11380	서울특별시 은평구 갈현로17나길 22	서울특별시 은평구 구산동 27-21	37.609652	126.9100523		역촌119안전센터	N	2010	5	은평소방서	02-6981-6044	2025-04-08
은평-역촌-317085	1	서울특별시	은평구	11380	서울특별시 은평구 서오릉로 151	서울특별시 은평구 구산동 2-1	37.61172409	126.9159387		역촌119안전센터	N	2011	5	은평소방서	02-6981-6044	2025-04-08
은평-역촌-317086	2	서울특별시	은평구	11380	서울특별시 은평구 서오릉로17길 16-15 파랑새빌	서울특별시 은평구 구산동 346-5 파랑새빌	37.613922	126.907921	파랑새빌	역촌119안전센터	N	2011	5	은평소방서	02-6981-6044	2025-04-08
은평-역촌-317087	1	서울특별시	은평구	11380	서울특별시 은평구 갈현로 140	서울특별시 은평구 구산동 16-29	37.61040141	126.9113342		역촌119안전센터	N	2012	5	은평소방서	02-6981-6044	2025-04-08
은평-역촌-317088	1	서울특별시	은평구	11380	서울특별시 은평구 연서로11길 20-14 수정센스빌	서울특별시 은평구 구산동 19-15 수정센스빌	37.609198	126.9136	수정센스빌	역촌119안전센터	N	2012	5	은평소방서	02-6981-6044	2025-04-08
은평-역촌-317058	1	서울특별시	은평구	11380	서울특별시 은평구 갈현로7길 56	서울특별시 은평구 구산동 226	37.60513475	126.9042795		역촌119안전센터	N	1997	5	은평소방서	02-6981-6044	2025-04-08
은평-역촌-317059	2	서울특별시	은평구	11380	서울특별시 은평구 연서로15길 46	서울특별시 은평구 구산동 216-11	37.61235801	126.9122018		역촌119안전센터	N	1997	5	은평소방서	02-6981-6044	2025-04-08
은평-역촌-317060	2	서울특별시	은평구	11380	서울특별시 은평구 서오릉로13길 6	서울특별시 은평구 구산동 215-1	37.61231049	126.9134915		역촌119안전센터	N	1997	5	은평소방서	02-6981-6044	2025-04-08
은평-역촌-317061	2	서울특별시	은평구	11380	서울특별시 은평구 갈현로17나길 27	서울특별시 은평구 구산동 15-29	37.60927445	126.9102689		역촌119안전센터	N	1997	5	은평소방서	02-6981-6044	2025-04-08
은평-역촌-317062	2	서울특별시	은평구	11380	서울특별시 은평구 서오릉로 157-17 이화빌라	서울특별시 은평구 구산동 2-6 이화빌라	37.611369	126.91559	이화빌라	역촌119안전센터	N	1997	5	은평소방서	02-6981-6044	2025-04-08
은평-역촌-317063	2	서울특별시	은평구	11380	서울특별시 은평구 연서로13길 13-5	서울특별시 은평구 구산동 20-50	37.60922493	126.9144327		역촌119안전센터	N	1997	5	은평소방서	02-6981-6044	2025-04-08
은평-역촌-317064	1	서울특별시	은평구	11380	서울특별시 은평구 연서로 97 HappyDog	서울특별시 은평구 구산동 21-48 HappyDog	37.607845	126.915158	Happy&Dog	역촌119안전센터	N	1998	5	은평소방서	02-6981-6044	2025-04-08
은평-역촌-317065	2	서울특별시	은평구	11380	서울특별시 은평구 서오릉로13길 20-4	서울특별시 은평구 구산동 217-12	37.61140563	126.9127554		역촌119안전센터	N	1998	5	은평소방서	02-6981-6044	2025-04-08
은평-역촌-317066	2	서울특별시	은평구	11380	서울특별시 은평구 연서로11길 13-1	서울특별시 은평구 구산동 22-9	37.60820959	126.9139113		역촌119안전센터	N	1998	5	은평소방서	02-6981-6044	2025-04-08
은평-역촌-317067	1	서울특별시	은평구	11380	서울특별시 은평구 갈현로 110-1 LG하이샤시SPEED	서울특별시 은평구 구산동 25-32 LG하이샤시SPEED	37.607668	126.910872	LG하이샤시SPEED	역촌119안전센터	N	1998	5	은평소방서	02-6981-6044	2025-04-08
은평-역촌-317068	2	서울특별시	은평구	11380	서울특별시 은평구 연서로 137 구산역 3번출구	서울특별시 은평구 구산동 1-1 구산역 3번출구	37.610944	126.917026	구산역 3번출구	역촌119안전센터	N	1999	5	은평소방서	02-6981-6044	2025-04-08
은평-역촌-317069	2	서울특별시	은평구	11380	서울특별시 은평구 갈현로17가길 19 태영맨션 앞	서울특별시 은평구 구산동 210-26 태영맨션 앞	37.612608	126.91078	태영맨션 앞	역촌119안전센터	N	2001	5	은평소방서	02-6981-6044	2025-04-08
은평-역촌-317070	2	서울특별시	은평구	11380	서울특별시 은평구 갈현로17길 17 브라운스톤구산	서울특별시 은평구 구산동 159-10 브라운스톤구산	37.611638	126.909899	브라운스톤구산	역촌119안전센터	N	2001	5	은평소방서	02-6981-6044	2025-04-08
은평-역촌-317071	2	서울특별시	은평구	11380	서울특별시 은평구 갈현로15길 40-7	서울특별시 은평구 구산동 167-4	37.60920606	126.907577		역촌119안전센터	N	2001	5	은평소방서	02-6981-6044	2025-04-08
은평-역촌-317072	2	서울특별시	은평구	11380	서울특별시 은평구 갈현로15길 46	서울특별시 은평구 구산동 167-1	37.60967638	126.906686		역촌119안전센터	N	2001	5	은평소방서	02-6981-6044	2025-04-08
은평-역촌-317043	2	서울특별시	은평구	11380	서울특별시 은평구 연서로13길 24-5	서울특별시 은평구 구산동 9-15	37.61060107	126.9135253		역촌119안전센터	N	1995	5	은평소방서	02-6981-6044	2025-04-08
은평-역촌-317044	2	서울특별시	은평구	11380	서울특별시 은평구 연서로11길 32-12	서울특별시 은평구 구산동 16-20	37.60959	126.912076		역촌119안전센터	N	1995	5	은평소방서	02-6981-6044	2025-04-08
은평-역촌-317045	2	서울특별시	은평구	11380	서울특별시 은평구 연서로13길 13-13	서울특별시 은평구 구산동 20-18	37.60883286	126.9142462		역촌119안전센터	N	1995	5	은평소방서	02-6981-6044	2025-04-08
은평-역촌-317046	2	서울특별시	은평구	11380	서울특별시 은평구 연서로13길 7 예일종합문구	서울특별시 은평구 구산동 20-1 예일종합문구	37.609318	126.915137	예일종합문구	역촌119안전센터	N	1995	5	은평소방서	02-6981-6044	2025-04-08
은평-역촌-317047	1	서울특별시	은평구	11380	서울특별시 은평구 갈현로 148 에스에이치빌라	서울특별시 은평구 구산동 11-10 에스에이치빌라	37.610976	126.911287	에스에이치빌라	역촌119안전센터	N	1995	5	은평소방서	02-6981-6044	2025-04-08
은평-역촌-317048	1	서울특별시	은평구	11380	서울특별시 은평구 갈현로 130	서울특별시 은평구 구산동 16-53	37.60955334	126.9112592		역촌119안전센터	N	1996	5	은평소방서	02-6981-6044	2025-04-08
은평-역촌-317049	2	서울특별시	은평구	11380	서울특별시 은평구 연서로15길 8	서울특별시 은평구 구산동 1-31	37.61069076	126.9160843		역촌119안전센터	N	1996	5	은평소방서	02-6981-6044	2025-04-08
은평-역촌-317050	2	서울특별시	은평구	11380	서울특별시 은평구 연서로13길 29-19	서울특별시 은평구 구산동 17-56	37.609267	126.912952		역촌119안전센터	N	1996	5	은평소방서	02-6981-6044	2025-04-08
은평-역촌-317051	2	서울특별시	은평구	11380	서울특별시 은평구 갈현로 154-27	서울특별시 은평구 구산동 10-37	37.61077162	126.9124144		역촌119안전센터	N	1996	5	은평소방서	02-6981-6044	2025-04-08
은평-역촌-317052	2	서울특별시	은평구	11380	서울특별시 은평구 연서로13길 29-12	서울특별시 은평구 구산동 16-16	37.60963833	126.912575		역촌119안전센터	N	1996	5	은평소방서	02-6981-6044	2025-04-08
은평-역촌-317053	1	서울특별시	은평구	11380	서울특별시 은평구 서오릉로 211 신세계부동산	서울특별시 은평구 구산동 202-1 신세계부동산	37.614019	126.910266	신세계부동산	역촌119안전센터	N	1996	5	은평소방서	02-6981-6044	2025-04-08
은평-역촌-317054	1	서울특별시	은평구	11380	서울특별시 은평구 갈현로15길 26	서울특별시 은평구 구산동 178-22	37.60808283	126.908074		역촌119안전센터	N	1996	5	은평소방서	02-6981-6044	2025-04-08
은평-역촌-317055	1	서울특별시	은평구	11380	서울특별시 은평구 갈현로 157	서울특별시 은평구 구산동 13-5	37.61191593	126.9111684		역촌119안전센터	N	1997	5	은평소방서	02-6981-6044	2025-04-08
은평-역촌-317056	1	서울특별시	은평구	11380	서울특별시 은평구 갈현로11길 12-1 예스 머리염색 체험방	서울특별시 은평구 구산동 177-83 예스 머리염색 체험방	37.605325	126.909105	예스 머리염색 체험방	역촌119안전센터	N	1997	5	은평소방서	02-6981-6044	2025-04-08
은평-역촌-317057	1	서울특별시	은평구	11380	서울특별시 은평구 갈현로 170	서울특별시 은평구 구산동 213-5	37.61298983	126.9116626		역촌119안전센터	N	1997	5	은평소방서	02-6981-6044	2025-04-08
은평-역촌-317028	2	서울특별시	은평구	11380	서울특별시 은평구 갈현로15길 10	서울특별시 은평구 구산동 188-64	37.60770531	126.9095814		역촌119안전센터	N	1994	5	은평소방서	02-6981-6044	2025-04-08
은평-역촌-317029	2	서울특별시	은평구	11380	서울특별시 은평구 연서로15길 36	서울특별시 은평구 구산동 216-8	37.61178075	126.9130622		역촌119안전센터	N	1994	5	은평소방서	02-6981-6044	2025-04-08
은평-역촌-317030	2	서울특별시	은평구	11380	서울특별시 은평구 갈현로15길 11-18	서울특별시 은평구 구산동 177-13	37.606532	126.9090844		역촌119안전센터	N	1994	5	은평소방서	02-6981-6044	2025-04-08
은평-역촌-317031	2	서울특별시	은평구	11380	서울특별시 은평구 갈현로17길 11-5 한양아트빌	서울특별시 은평구 구산동 27-8 한양아트빌	37.61135	126.910422	한양아트빌	역촌119안전센터	N	1994	5	은평소방서	02-6981-6044	2025-04-08
은평-역촌-317032	1	서울특별시	은평구	11380	서울특별시 은평구 서오릉로 177 신안경점 앞	서울특별시 은평구 구산동 199-1 신안경점 앞	37.612785	126.913794	신안경점 앞	역촌119안전센터	N	1994	5	은평소방서	02-6981-6044	2025-04-08
은평-역촌-317033	1	서울특별시	은평구	11380	서울특별시 은평구 서오릉로 163 A동	서울특별시 은평구 구산동 198-3 A동	37.612302	126.91529	A동	역촌119안전센터	N	1994	5	은평소방서	02-6981-6044	2025-04-08
은평-역촌-317034	2	서울특별시	은평구	11380	서울특별시 은평구 갈현로15길 12-11 보성넥스빌	서울특별시 은평구 구산동 188-27 보성넥스빌	37.608379	126.909401	보성넥스빌	역촌119안전센터	N	1994	5	은평소방서	02-6981-6044	2025-04-08
은평-역촌-317035	2	서울특별시	은평구	11380	서울특별시 은평구 갈현로15길 26	서울특별시 은평구 구산동 178-22	37.60808283	126.908074		역촌119안전센터	N	1994	5	은평소방서	02-6981-6044	2025-04-08
은평-역촌-317036	2	서울특별시	은평구	11380	서울특별시 은평구 갈현로15길 18	서울특별시 은평구 구산동 178-35	37.60787261	126.9087424		역촌119안전센터	N	1994	5	은평소방서	02-6981-6044	2025-04-08
은평-역촌-317037	2	서울특별시	은평구	11380	서울특별시 은평구 갈현로11가길 9-11	서울특별시 은평구 구산동 177-88	37.605932	126.907765		역촌119안전센터	N	1994	5	은평소방서	02-6981-6044	2025-04-08
은평-역촌-317038	1	서울특별시	은평구	11380	서울특별시 은평구 갈현로11가길 12 구산동다세대주택	서울특별시 은평구 구산동 177-55 구산동다세대주택	37.606001	126.908411		역촌119안전센터	N	1994	5	은평소방서	02-6981-6044	2025-04-08
은평-역촌-317039	1	서울특별시	은평구	11380	서울특별시 은평구 서오릉로 203 롯데리아	서울특별시 은평구 구산동 202-2 롯데리아	37.613841	126.910973	롯데리아	역촌119안전센터	N	1994	5	은평소방서	02-6981-6044	2025-04-08
은평-역촌-317040	2	서울특별시	은평구	11380	서울특별시 은평구 서오릉로13길 10 한솔빌라 A동	서울특별시 은평구 구산동 215-18 한솔빌라 A동	37.611896	126.913403	한솔빌라 A동	역촌119안전센터	N	1994	5	은평소방서	02-6981-6044	2025-04-08
은평-역촌-317041	2	서울특별시	은평구	11380	서울특별시 은평구 갈현로17나길 14	서울특별시 은평구 구산동 27-15	37.610407	126.9101322		역촌119안전센터	N	1994	5	은평소방서	02-6981-6044	2025-04-08
은평-역촌-317042	2	서울특별시	은평구	11380	서울특별시 은평구 갈현로 114 구산동새마을금고	서울특별시 은평구 구산동 25-17 구산동새마을금고	37.608147	126.910972	구산동새마을금고	역촌119안전센터	N	1994	5	은평소방서	02-6981-6044	2025-04-08
은평-역촌-317013	2	서울특별시	은평구	11380	서울특별시 은평구 갈현로16길 16	서울특별시 은평구 구산동 25-53	37.60795586	126.9126823		역촌119안전센터	N	1990	5	은평소방서	02-6981-6044	2025-04-08
은평-역촌-317014	2	서울특별시	은평구	11380	서울특별시 은평구 서오릉로11길 15 우민인터빌	서울특별시 은평구 구산동 3-38 우민인터빌	37.610991	126.914611	우민인터빌	역촌119안전센터	N	1991	5	은평소방서	02-6981-6044	2025-04-08
은평-역촌-317015	2	서울특별시	은평구	11380	서울특별시 은평구 서오릉로17길 15-16 프라임 하우스 앞	서울특별시 은평구 구산동 363-21 프라임 하우스 앞	37.61301	126.908967	프라임 하우스 앞	역촌119안전센터	N	1991	5	은평소방서	02-6981-6044	2025-04-08
은평-역촌-317016	2	서울특별시	은평구	11380	서울특별시 은평구 연서로11길 22	서울특별시 은평구 구산동 18-25	37.60864561	126.9131039		역촌119안전센터	N	1991	5	은평소방서	02-6981-6044	2025-04-08
은평-역촌-317017	2	서울특별시	은평구	11380	서울특별시 은평구 갈현로 139-1	서울특별시 은평구 구산동 15-1	37.61038702	126.910779		역촌119안전센터	N	1993	5	은평소방서	02-6981-6044	2025-04-08
은평-역촌-317018	1	서울특별시	은평구	11380	서울특별시 은평구 서오릉로 193 서부중앙의원	서울특별시 은평구 구산동 200-2 서부중앙의원	37.613452	126.912067	서부중앙의원	역촌119안전센터	N	1993	5	은평소방서	02-6981-6044	2025-04-08
은평-역촌-317019	2	서울특별시	은평구	11380	서울특별시 은평구 연서로15길 42-1 준그린빌	서울특별시 은평구 구산동 216-26 준그린빌	37.611975	126.912376	그린빌	역촌119안전센터	N	1993	5	은평소방서	02-6981-6044	2025-04-08
은평-역촌-317020	2	서울특별시	은평구	11380	서울특별시 은평구 연서로11길 8 특별한수학전문교실	서울특별시 은평구 구산동 20-30 특별한수학전문교실	37.608104	126.91448	특별한수학전문교실	역촌119안전센터	N	1994	5	은평소방서	02-6981-6044	2025-04-08
은평-역촌-317021	2	서울특별시	은평구	11380	서울특별시 은평구 연서로11길 29-1	서울특별시 은평구 구산동 24-53	37.60868411	126.912001		역촌119안전센터	N	1994	5	은평소방서	02-6981-6044	2025-04-08
은평-역촌-317022	2	서울특별시	은평구	11380	서울특별시 은평구 갈현로17나길 19	서울특별시 은평구 구산동 15-20	37.609823	126.9103263		역촌119안전센터	N	1994	5	은평소방서	02-6981-6044	2025-04-08
은평-역촌-317023	1	서울특별시	은평구	11380	서울특별시 은평구 연서로 107 세화샤이닝아파트	서울특별시 은평구 구산동 222 세화샤이닝아파트	37.608816	126.915643	세화샤이닝아파트	역촌119안전센터	N	1994	5	은평소방서	02-6981-6044	2025-04-08
은평-역촌-317024	2	서울특별시	은평구	11380	서울특별시 은평구 갈현로17나길 40-	서울특별시 은평구 구산동 27-35	37.60791931	126.9098426		역촌119안전센터	N	1994	5	은평소방서	02-6981-6044	2025-04-08
은평-역촌-317025	2	서울특별시	은평구	11380	서울특별시 은평구 갈현로15길 28 QM프라임 정문 앞	서울특별시 은평구 구산동 180-16 QM프라임 정문 앞	37.607945	126.907786	QM프라임 정문 앞	역촌119안전센터	N	1994	5	은평소방서	02-6981-6044	2025-04-08
은평-역촌-317026	2	서울특별시	은평구	11380	서울특별시 은평구 갈현로 123-1	서울특별시 은평구 구산동 26-1	37.60887764	126.910637		역촌119안전센터	N	1994	5	은평소방서	02-6981-6044	2025-04-08
은평-역촌-317027	2	서울특별시	은평구	11380	서울특별시 은평구 연서로 129 현대서점	서울특별시 은평구 구산동 1-15 현대서점	37.610212	126.916844	현대서점	역촌119안전센터	N	1994	5	은평소방서	02-6981-6044	2025-04-08
은평-역촌-316139	1	서울특별시	은평구	11380	서울특별시 은평구 갈현로 191 동아일보	서울특별시 은평구 갈현동 507-9 동아일보	37.614528	126.912388	동아일보	역촌119안전센터	N	2011	5	은평소방서	02-6981-6044	2025-04-08
은평-역촌-316140	1	서울특별시	은평구	11380	서울특별시 은평구 서오릉로24길 17	서울특별시 은평구 갈현동 227-44	37.618302	126.9071679		역촌119안전센터	N	2012	5	은평소방서	02-6981-6044	2025-04-08
은평-역촌-316141	2	서울특별시	은평구	11380	서울특별시 은평구 서오릉로22길 23	서울특별시 은평구 갈현동 227-54	37.61810824	126.907643		역촌119안전센터	N	2012	5	은평소방서	02-6981-6044	2025-04-08
은평-역촌-316142	2	서울특별시	은평구	11380	서울특별시 은평구 서오릉로24길 7	서울특별시 은평구 갈현동 326-32	37.61752934	126.9073899		역촌119안전센터	N	2012	5	은평소방서	02-6981-6044	2025-04-08
은평-역촌-316143	2	서울특별시	은평구	11380	서울특별시 은평구 갈현로25길 19	서울특별시 은평구 갈현동 514-1	37.617642	126.912727		역촌119안전센터	N	2012	5	은평소방서	02-6981-6044	2025-04-08
은평-역촌-316144	2	서울특별시	은평구	11380	서울특별시 은평구 연서로 215-1	서울특별시 은평구 갈현동 456-3	37.61790735	126.9194844		역촌119안전센터	N	2013	5	은평소방서	02-6981-6044	2025-04-08
은평-역촌-317002	2	서울특별시	은평구	11380	서울특별시 은평구 갈현로 151 구산치안센터	서울특별시 은평구 구산동 14-10 구산치안센터	37.611354	126.911156	구산치안센터	역촌119안전센터	N	1978	5	은평소방서	02-6981-6044	2025-04-08
은평-역촌-317003	2	서울특별시	은평구	11380	서울특별시 은평구 연서로9길 20 파랑새어린이집	서울특별시 은평구 구산동 23-10 파랑새어린이집	37.607471	126.912795	파랑새어린이집	역촌119안전센터	N	1984	5	은평소방서	02-6981-6044	2025-04-08
은평-역촌-317004	1	서울특별시	은평구	11380	서울특별시 은평구 서오릉로 185 라라유치원	서울특별시 은평구 구산동 199-20 라라유치원	37.613124	126.912848	라라유치원	역촌119안전센터	N	1986	5	은평소방서	02-6981-6044	2025-04-08
은평-역촌-317005	2	서울특별시	은평구	11380	서울특별시 은평구 갈현로 172	서울특별시 은평구 구산동 200-10	37.61322413	126.9117115		역촌119안전센터	N	1986	5	은평소방서	02-6981-6044	2025-04-08
은평-역촌-317006	2	서울특별시	은평구	11380	서울특별시 은평구 갈현로 158 현진미용실	서울특별시 은평구 구산동 214-1 현진미용실	37.612019	126.911386	현진미용실	역촌119안전센터	N	1986	5	은평소방서	02-6981-6044	2025-04-08
은평-역촌-317007	2	서울특별시	은평구	11380	서울특별시 은평구 갈현로11길 46 경남 아너스빌	서울특별시 은평구 구산동 224 경남 아너스빌	37.6048	126.905784	경남 아너스빌	역촌119안전센터	N	1987	5	은평소방서	02-6981-6044	2025-04-08
은평-역촌-317008	2	서울특별시	은평구	11380	서울특별시 은평구 서오릉로15길 5-4	서울특별시 은평구 구산동 209-6	37.61349752	126.9102044		역촌119안전센터	N	1988	5	은평소방서	02-6981-6044	2025-04-08
은평-역촌-317009	2	서울특별시	은평구	11380	서울특별시 은평구 연서로13길 32 토마토한식분식	서울특별시 은평구 구산동 9-41 토마토한식분식	37.610227	126.912546	토마토한식분식	역촌119안전센터	N	1988	5	은평소방서	02-6981-6044	2025-04-08
은평-역촌-317010	1	서울특별시	은평구	11380	서울특별시 은평구 연서로 133 김밥천국	서울특별시 은평구 구산동 1-10 김밥천국	37.610644	126.916972	김밥천국	역촌119안전센터	N	1989	5	은평소방서	02-6981-6044	2025-04-08
은평-역촌-316124	1	서울특별시	은평구	11380	서울특별시 은평구 서오릉로21길 30-25 비소 51호	서울특별시 은평구 구산동 355-87 비소 51호	37.613598	126.904988	비소 51호	역촌119안전센터	N	2006	5	은평소방서	02-6981-6044	2025-04-08
은평-역촌-316125	2	서울특별시	은평구	11380	서울특별시 은평구 연서로17길 26-9 성산교회	서울특별시 은평구 갈현동 472-14 성산교회	37.613678	126.915039	성산교회	역촌119안전센터	N	2006	5	은평소방서	02-6981-6044	2025-04-08
은평-역촌-316126	2	서울특별시	은평구	11380	서울특별시 은평구 갈현로29길 40	서울특별시 은평구 갈현동 259-18	37.62159528	126.9121765		역촌119안전센터	N	2006	5	은평소방서	02-6981-6044	2025-04-08
은평-역촌-316127	2	서울특별시	은평구	11380	서울특별시 은평구 서오릉로27길 22-1	서울특별시 은평구 구산동 308-61	37.61736139	126.903966		역촌119안전센터	N	2006	5	은평소방서	02-6981-6044	2025-04-08
은평-역촌-316128	1	서울특별시	은평구	11380	서울특별시 은평구 갈현로27길 45-7	서울특별시 은평구 갈현동 228-22	37.61934485	126.9104495		역촌119안전센터	N	2007	5	은평소방서	02-6981-6044	2025-04-08
은평-역촌-316129	1	서울특별시	은평구	11380	서울특별시 은평구 서오릉로 234	서울특별시 은평구 갈현동 327-20	37.61571824	126.9086281		역촌119안전센터	N	2008	5	은평소방서	02-6981-6044	2025-04-08
은평-역촌-316130	1	서울특별시	은평구	11380	서울특별시 은평구 갈현로 253	서울특별시 은평구 갈현동 450-7	37.61966401	126.915627		역촌119안전센터	N	2008	5	은평소방서	02-6981-6044	2025-04-08
은평-역촌-316131	1	서울특별시	은평구	11380	서울특별시 은평구 서오릉로 253	서울특별시 은평구 구산동 307-1	37.61681212	126.9064096		역촌119안전센터	N	1993	5	은평소방서	02-6981-6044	2025-04-08
은평-역촌-316132	1	서울특별시	은평구	11380	서울특별시 은평구 서오릉로23길 8-5 수국사 (비소 74호)	서울특별시 은평구 구산동 314 수국사 (비소 74호)	37.615603	126.905914	비소 74호	역촌119안전센터	N	2009	5	은평소방서	02-6981-6044	2025-04-08
은평-역촌-316133	1	서울특별시	은평구	11380	서울특별시 은평구 갈현로 247	서울특별시 은평구 갈현동 503-12	37.61911322	126.915225		역촌119안전센터	N	2008	5	은평소방서	02-6981-6044	2025-04-08
은평-역촌-316134	1	서울특별시	은평구	11380	서울특별시 은평구 서오릉로17길 19-1	서울특별시 은평구 구산동 368-34	37.613292	126.9083215		역촌119안전센터	N	2009	5	은평소방서	02-6981-6044	2025-04-08
은평-역촌-316135	2	서울특별시	은평구	11380	서울특별시 은평구 서오릉로18길 33	서울특별시 은평구 갈현동 522-27	37.61711336	126.9112686		역촌119안전센터	N	2009	5	은평소방서	02-6981-6044	2025-04-08
은평-역촌-316136	2	서울특별시	은평구	11380	서울특별시 은평구 서오릉로25가길 3-11	서울특별시 은평구 구산동	37.617428	126.905		역촌119안전센터	N	2010	5	은평소방서	02-6981-6044	2025-04-08
은평-역촌-316137	1	서울특별시	은평구	11380	서울특별시 은평구 서오릉로 228 갈현삼성 아파트 입구	서울특별시 은평구 갈현동 333-9 갈현삼성 아파트 입구	37.615175	126.909059	갈현삼성 아파트 입구	역촌119안전센터	N	2010	5	은평소방서	02-6981-6044	2025-04-08
은평-역촌-316138	1	서울특별시	은평구	11380	서울특별시 은평구 갈현로 197 갈현동OB주유소	서울특별시 은평구 갈현동 506-5 갈현동OB주유소	37.615212	126.913018	갈현동OB주유소	역촌119안전센터	N	2011	5	은평소방서	02-6981-6044	2025-04-08
은평-역촌-316109	2	서울특별시	은평구	11380	서울특별시 은평구 갈현로25길 29	서울특별시 은평구 갈현동 518-30	37.618133	126.911834		역촌119안전센터	N	2001	5	은평소방서	02-6981-6044	2025-04-08
은평-역촌-316110	2	서울특별시	은평구	11380	서울특별시 은평구 서오릉로17길 15	서울특별시 은평구 구산동 363-2	37.61367425	126.908406		역촌119안전센터	N	2001	5	은평소방서	02-6981-6044	2025-04-08
은평-역촌-316111	2	서울특별시	은평구	11380	서울특별시 은평구 서오릉로21길 15 동익파크아파트 1동 입구 근처	서울특별시 은평구 구산동 346-9 동익파크아파트 1동 입구 근처	37.614462	126.907329	동익파크아파트 1동 입구 근처	역촌119안전센터	N	2001	5	은평소방서	02-6981-6044	2025-04-08
은평-역촌-316112	2	서울특별시	은평구	11380	서울특별시 은평구 서오릉로21가길 3 주택 앞	서울특별시 은평구 구산동 355-35 주택 앞	37.613959	126.906089		역촌119안전센터	N	2001	5	은평소방서	02-6981-6044	2025-04-08
은평-역촌-316113	2	서울특별시	은평구	11380	서울특별시 은평구 서오릉로18길 35	서울특별시 은평구 갈현동 522-44	37.6174722	126.9115954		역촌119안전센터	N	2004	5	은평소방서	02-6981-6044	2025-04-08
은평-역촌-316114	2	서울특별시	은평구	11380	서울특별시 은평구 갈현로25길 25	서울특별시 은평구 갈현동 519-1	37.61790005	126.9122776		역촌119안전센터	N	2004	5	은평소방서	02-6981-6044	2025-04-08
은평-역촌-316115	2	서울특별시	은평구	11380	서울특별시 은평구 서오릉로 228-11	서울특별시 은평구 갈현동 327-62	37.61563291	126.9096779		역촌119안전센터	N	2004	5	은평소방서	02-6981-6044	2025-04-08
은평-역촌-316116	2	서울특별시	은평구	11380	서울특별시 은평구 갈현로27길 33	서울특별시 은평구 갈현동 517-7	37.619004	126.911662		역촌119안전센터	N	2004	5	은평소방서	02-6981-6044	2025-04-08
은평-역촌-316117	1	서울특별시	은평구	11380	서울특별시 은평구 연서로 199 갈현자원	서울특별시 은평구 갈현동 460-23 갈현자원	37.616462	126.918673	갈현자원	역촌119안전센터	N	2005	5	은평소방서	02-6981-6044	2025-04-08
은평-역촌-316118	2	서울특별시	은평구	11380	서울특별시 은평구 서오릉로 235 하나로교육센타	서울특별시 은평구 구산동 321-22 하나로교육센타	37.615857	126.907786	하나로교육센타	역촌119안전센터	N	2005	5	은평소방서	02-6981-6044	2025-04-08
은평-역촌-316119	1	서울특별시	은평구	11380	서울특별시 은평구 서오릉로 208 아시아태권도전문체육관	서울특별시 은평구 갈현동 508-7 아시아태권도전문체육관	37.61414	126.910727	아시아태권도전문체육관	역촌119안전센터	N	2005	5	은평소방서	02-6981-6044	2025-04-08
은평-역촌-316120	2	서울특별시	은평구	11380	서울특별시 은평구 연서로29길 17 커피니 건물	서울특별시 은평구 갈현동 453-3 커피니 건물	37.619035	126.918455	커피니 건물	역촌119안전센터	N	2006	5	은평소방서	02-6981-6044	2025-04-08
은평-역촌-316121	2	서울특별시	은평구	11380	서울특별시 은평구 갈현로23길 6-3	서울특별시 은평구 갈현동 512-8	37.61651911	126.9132693		역촌119안전센터	N	2006	5	은평소방서	02-6981-6044	2025-04-08
은평-역촌-316122	2	서울특별시	은평구	11380	서울특별시 은평구 갈현로31길 22	서울특별시 은평구 갈현동 243-32	37.62066912	126.9137089		역촌119안전센터	N	2006	5	은평소방서	02-6981-6044	2025-04-08
은평-역촌-316123	1	서울특별시	은평구	11380	서울특별시 은평구 서오릉로27길 27	서울특별시 은평구 구산동 308-6	37.61682578	126.9039234		역촌119안전센터	N	2006	5	은평소방서	02-6981-6044	2025-04-08
은평-현장-106037	1	서울특별시	은평구	11380	서울특별시 은평구 진흥로 265 북한산래미안2단지	서울특별시 은평구 불광동 637 북한산래미안2단지	37.610635	126.938197	북한산래미안2단지	현장대응단	N	1990	5	은평소방서	02-6981-6044	2025-04-08
은평-현장-106038	1	서울특별시	은평구	11380	서울특별시 은평구 불광로2길 39 북한산힐스테이트 상가동	서울특별시 은평구 불광동 635-1 북한산힐스테이트 상가동	37.611817	126.937346	북한산힐스테이트 상가동	현장대응단	N	1990	5	은평소방서	02-6981-6044	2025-04-08
은평-현장-106039	1	서울특별시	은평구	11380	서울특별시 은평구 불광로 153 삼익아파트	서울특별시 은평구 불광동 217-9 삼익아파트	37.62008	126.931889	삼익아파트	현장대응단	N	1991	5	은평소방서	02-6981-6044	2025-04-08
은평-현장-106040	2	서울특별시	은평구	11380	서울특별시 은평구 불광로6길 4 신우빌라트	서울특별시 은평구 불광동 241-23 신우빌라트	37.614041	126.932821	신우빌라	현장대응단	N	1991	5	은평소방서	02-6981-6044	2025-04-08
은평-현장-106041	2	서울특별시	은평구	11380	서울특별시 은평구 통일로68가길 30 주택	서울특별시 은평구 불광동 244-113 주택	37.614793	126.930006		현장대응단	N	1991	5	은평소방서	02-6981-6044	2025-04-08
은평-현장-저106042	4	서울특별시	은평구	11380	서울특별시 은평구 불광로 39 종로약국	서울특별시 은평구 불광동 274-13 종로약국	37.611191	126.929981	종로약국	현장대응단	N	1991	5	은평소방서	02-6981-6044	2025-04-08
은평-현장-106043	2	서울특별시	은평구	11380	서울특별시 은평구 불광로2길 10 홈 할인마트	서울특별시 은평구 불광동 600-3 홈 할인마트	37.611815	126.932957	홈 할인마트	현장대응단	N	1993	5	은평소방서	02-6981-6044	2025-04-08
은평-현장-106044	2	서울특별시	은평구	11380	서울특별시 은평구 불광로2길 7 현대아파트104동	서울특별시 은평구 불광동 633-1 현대아파트104동	37.612441	126.933825	현대아파트104동	현장대응단	N	1993	5	은평소방서	02-6981-6044	2025-04-08
은평-현장-106045	1	서울특별시	은평구	11380	서울특별시 은평구 불광로2길 33 북한산힐스테이트1차아파트	서울특별시 은평구 불광동 635 북한산힐스테이트1차아파트	37.612314	126.9392	북한산힐스테이트1차아파트	현장대응단	N	1993	5	은평소방서	02-6981-6044	2025-04-08
은평-현장-106046	1	서울특별시	은평구	11380	서울특별시 은평구 불광로2길 33 북한산힐스테이트1차아파트	서울특별시 은평구 불광동 635 북한산힐스테이트1차아파트	37.611978	126.938497	북한산힐스테이트1차아파트	현장대응단	N	1993	5	은평소방서	02-6981-6044	2025-04-08
은평-현장-106047	2	서울특별시	은평구	11380	서울특별시 은평구 불광로8길 14 청송빌라	서울특별시 은평구 불광동 8-246 청송빌라	37.616531	126.933773	청송빌라	현장대응단	N	1993	5	은평소방서	02-6981-6044	2025-04-08
은평-현장-106048	2	서울특별시	은평구	11380	서울특별시 은평구 불광로6길 6-9 일반주택	서울특별시 은평구 불광동 241-17 일반주택	37.613494	126.932808		현장대응단	N	1993	5	은평소방서	02-6981-6044	2025-04-08
은평-현장-106049	2	서울특별시	은평구	11380	서울특별시 은평구 불광로6길 10-6 한울채	서울특별시 은평구 불광동 8-154 한울채	37.613503	126.933227	한울채	현장대응단	N	1993	5	은평소방서	02-6981-6044	2025-04-08
은평-현장-106050	2	서울특별시	은평구	11380	서울특별시 은평구 불광로6길 19 남해그린힐아파트	서울특별시 은평구 불광동 8-63 남해그린힐아파트	37.613863	126.934363	남해그린힐아파트	현장대응단	N	1993	5	은평소방서	02-6981-6044	2025-04-08
은평-현장-106051	2	서울특별시	은평구	11380	서울특별시 은평구 불광로14길 4-6 하림어린이집	서울특별시 은평구 불광동 13-11 하림어린이집	37.618721	126.93327	하림어린이집	현장대응단	N	1994	5	은평소방서	02-6981-6044	2025-04-08
은평-현장-106009	2	서울특별시	은평구	11380	서울특별시 은평구 통일로66길 4-17 모텔 리츠	서울특별시 은평구 불광동 281-162 모텔 리츠	37.609602	126.931346	모텔 리츠	현장대응단	N	1987	5	은평소방서	02-6981-6044	2025-04-08
은평-현장-106010	2	서울특별시	은평구	11380	서울특별시 은평구 통일로68길 12-6 백운오피스텔	서울특별시 은평구 불광동 272-22 백운오피스텔	37.61214	126.930263	백운오피스텔	현장대응단	N	1988	5	은평소방서	02-6981-6044	2025-04-08
은평-현장-106011	2	서울특별시	은평구	11380	서울특별시 은평구 불광로 93-3 일반건물	서울특별시 은평구 불광동 240-13 일반건물	37.615189	126.93239		현장대응단	N	1988	5	은평소방서	02-6981-6044	2025-04-08
은평-현장-106012	2	서울특별시	은평구	11380	서울특별시 은평구 불광로14길 32 양평수퍼	서울특별시 은평구 불광동 16-267 양평수퍼	37.621512	126.933502	양평수퍼	현장대응단	N	1988	5	은평소방서	02-6981-6044	2025-04-08
은평-현장-106013	1	서울특별시	은평구	11380	서울특별시 은평구 통일로 736 현대차불광영업소	서울특별시 은평구 불광동 274-12 현대차불광영업소	37.611133	126.929731	현대차불광영업소	현장대응단	N	1988	5	은평소방서	02-6981-6044	2025-04-08
은평-현장-106014	2	서울특별시	은평구	11380	서울특별시 은평구 불광로 112 칸투라 카페 옆	서울특별시 은평구 불광동 11-14 칸투라 카페 옆	37.616788	126.932799	칸투라 카페	현장대응단	N	1988	5	은평소방서	02-6981-6044	2025-04-08
은평-현장-106015	1	서울특별시	은평구	11380	서울특별시 은평구 불광로 65 경북철물	서울특별시 은평구 불광동 279-3 경북철물	37.612816	126.931887	경북철물	현장대응단	N	1988	5	은평소방서	02-6981-6044	2025-04-08
은평-현장-106016	2	서울특별시	은평구	11380	서울특별시 은평구 불광로 146	서울특별시 은평구 불광동 19-3	37.62039099	126.932536		현장대응단	N	1989	5	은평소방서	02-6981-6044	2025-04-08
은평-현장-106017	1	서울특별시	은평구	11380	서울특별시 은평구 진흥로 265 북한산래미안아파트	서울특별시 은평구 불광동 637 북한산래미안아파트	37.611345	126.937589	북한산래미안아파트	현장대응단	N	1989	5	은평소방서	02-6981-6044	2025-04-08
은평-현장-106018	2	서울특별시	은평구	11380	서울특별시 은평구 불광로 37-5	서울특별시 은평구 불광동 274-4	37.61162428	126.929732		현장대응단	N	2017	5	은평소방서	02-6981-6044	2025-04-08
은평-현장-106030	2	서울특별시	은평구	11380	서울특별시 은평구 불광로 156-7 삼형빌라	서울특별시 은평구 불광동 16-58 삼형빌라	37.62061	126.932472	삼형빌라	현장대응단	N	1989	5	은평소방서	02-6981-6044	2025-04-08
은평-현장-106033	2	서울특별시	은평구	11380	서울특별시 은평구 통일로 708-1 불광역2번출구	서울특별시 은평구 불광동 285-29 불광역2번출구	37.609044	126.931302	불광역2번출구	현장대응단	N	1989	5	은평소방서	02-6981-6044	2025-04-08
은평-현장-106034	2	서울특별시	은평구	11380	서울특별시 은평구 통일로66길 9 싸다횟집	서울특별시 은평구 불광동 281-65 싸다횟집	37.61066	126.931257	싸다횟집	현장대응단	N	1990	5	은평소방서	02-6981-6044	2025-04-08
은평-현장-106035	2	서울특별시	은평구	11380	서울특별시 은평구 통일로68길 21-1 주택	서울특별시 은평구 불광동 244-105 주택	37.613179	126.930352		현장대응단	N	1990	5	은평소방서	02-6981-6044	2025-04-08
은평-현장-106036	2	서울특별시	은평구	11380	서울특별시 은평구 통일로68길 37-6 주택	서울특별시 은평구 불광동 244-32 주택	37.614648	126.930589		현장대응단	N	1990	5	은평소방서	02-6981-6044	2025-04-08
은평-녹번-105108	2	서울특별시	은평구	11380	서울특별시 은평구 진흥로12나길 18-1	서울특별시 은평구 녹번동 142-49	37.6068262	126.9258484		녹번119안전센터	N	2019	5	은평소방서	02-6981-6044	2025-04-08
은평-녹번-105109	2	서울특별시	은평구	11380	서울특별시 은평구 서오릉로2길 7-8	서울특별시 은평구 녹번동 83-66	37.60271635	126.9276192		녹번119안전센터	N	2019	5	은평소방서	02-6981-6044	2025-04-08
은평-녹번-105110	2	서울특별시	은평구	11380	서울특별시 은평구 진흥로 158-2 명진하이빌	서울특별시 은평구 녹번동 131-162 명진하이빌	37.608533	126.927053	명진하이빌	녹번119안전센터	N	2019	5	은평소방서	02-6981-6044	2025-04-08
은평-녹번-급101001	3	서울특별시	은평구	11380	서울특별시 은평구 은평로 245	서울특별시 은평구 녹번동 48-5	37.60110498	126.9351461		녹번119안전센터	N	1975	5	은평소방서	02-6981-6044	2025-04-08
은평-녹번-저105007	4	서울특별시	은평구	11380	서울특별시 은평구 응암로 180 제이스모텔앞 인도	서울특별시 은평구 응암동 602-45 제이스모텔앞 인도	37.587971	126.916821	제이스모텔 앞 인도	녹번119안전센터	N	1986	5	은평소방서	02-6981-6044	2025-04-08
은평-녹번-저102087	4	서울특별시	은평구	11380	서울특별시 은평구 응암로 323 오연춘치과	서울특별시 은평구 응암동 109-1 오연춘치과	37.600156	126.921959	오연춘치과	녹번119안전센터	N	1996	5	은평소방서	02-6981-6044	2025-04-08
은평-현장-103073	1	서울특별시	은평구	11380	서울특별시 은평구 진관길 73 진관사 올라가는 길	서울특별시 은평구 진관동 354 진관사 올라가는 길	37.638883	126.945486	진관사 올라가는 길	현장대응단	N	2013	5	은평소방서	02-6981-6044	2025-04-08
은평-현장-106001	1	서울특별시	은평구	11380	서울특별시 은평구 진흥로 267 북한산래미안아파트	서울특별시 은평구 불광동 638 북한산래미안아파트	37.610618	126.938551	북한산래미안아파트	현장대응단	N	1972	5	은평소방서	02-6981-6044	2025-04-08
은평-현장-106002	2	서울특별시	은평구	11380	서울특별시 은평구 불광로 131 GS편의점 건물	서울특별시 은평구 불광동 13-15 GS편의점 건물	37.618438	126.933101	GS편의점	현장대응단	N	1976	5	은평소방서	02-6981-6044	2025-04-08
은평-현장-106003	2	서울특별시	은평구	11380	서울특별시 은평구 불광로2길 2	서울특별시 은평구 불광동 603-1	37.61193847	126.9319309		현장대응단	N	1976	5	은평소방서	02-6981-6044	2025-04-08
은평-현장-106004	2	서울특별시	은평구	11380	서울특별시 은평구 통일로 738-1 수채화 일반음식점	서울특별시 은평구 불광동 274-11 수채화 일반음식점	37.61156	126.929594	수채화	현장대응단	N	1984	5	은평소방서	02-6981-6044	2025-04-08
은평-현장-106005	1	서울특별시	은평구	11380	서울특별시 은평구 통일로 716-1 인디안모드	서울특별시 은평구 불광동 281-174 인디안모드	37.609861	126.930546	인디안모드	현장대응단	N	1985	5	은평소방서	02-6981-6044	2025-04-08
은평-현장-106006	1	서울특별시	은평구	11380	서울특별시 은평구 불광로2길 33 북한산힐스테이트1차아파트	서울특별시 은평구 불광동 635 북한산힐스테이트1차아파트	37.612029	126.936013	북한산힐스테이트1차아파트	현장대응단	N	1985	5	은평소방서	02-6981-6044	2025-04-08
은평-현장-106007	2	서울특별시	은평구	11380	서울특별시 은평구 불광로14길 22 황금아트빌	서울특별시 은평구 불광동 16-1 황금아트빌	37.620583	126.933183	황금아트빌	현장대응단	N	1987	5	은평소방서	02-6981-6044	2025-04-08
은평-현장-106008	2	서울특별시	은평구	11380	서울특별시 은평구 진흥로 215 한국환경산업기술원	서울특별시 은평구 불광동 613-2 한국환경산업기술원	37.60951	126.932827	한국환경산업기술원	현장대응단	N	1987	5	은평소방서	02-6981-6044	2025-04-08
